City_ID,City,Country,Date,Lat,Lng,Max Temp,Humidity,Cloudiness,Wind Speed
0,Rikitea,PF,2021-04-19 05:09:33,-23.1203,-134.9692,78.13,70,7,4.38
1,Hilo,US,2021-04-19 05:09:33,19.7297,-155.09,75.2,69,90,5.75
2,Kavieng,PG,2021-04-19 05:09:34,-2.5744,150.7967,84.72,70,96,9.13
3,Bredasdorp,ZA,2021-04-19 05:09:34,-34.5322,20.0403,62.6,88,100,8.05
4,Pilna,RU,2021-04-19 05:09:35,55.5539,45.9219,38.5,57,100,16.24
5,Yumen,CN,2021-04-19 05:09:35,40.2833,97.2,63.1,20,51,14.5
6,Atasu,KZ,2021-04-19 05:09:36,48.6814,71.6433,51.19,63,60,15.93
7,Hermanus,ZA,2021-04-19 05:09:36,-34.4187,19.2345,63.0,91,100,3.0
8,Butia,BR,2021-04-19 05:09:37,-30.1197,-51.9622,59.88,94,0,4.36
9,Saint-Philippe,RE,2021-04-19 05:09:37,-21.3585,55.7679,77.0,83,90,14.97
10,San Patricio,US,2021-04-19 05:09:38,28.017,-97.5169,61.0,82,75,7.09
11,Upernavik,GL,2021-04-19 05:09:38,72.7868,-56.1549,-0.87,87,99,5.1
12,Tuatapere,NZ,2021-04-19 05:09:39,-46.1333,167.6833,60.01,78,88,5.99
13,Cayenne,GF,2021-04-19 05:09:39,4.9333,-52.3333,80.01,100,90,8.43
14,Yellowknife,CA,2021-04-19 05:08:02,62.456,-114.3525,35.6,60,40,4.61
15,Tambun,ID,2021-04-19 05:09:40,-6.2641,107.0712,89.6,55,40,6.91
16,Atuona,PF,2021-04-19 05:09:41,-9.8,-139.0333,80.15,80,21,19.04
17,Hobyo,SO,2021-04-19 05:09:41,5.3505,48.5268,84.54,67,15,7.18
18,Salinas,US,2021-04-19 05:09:42,36.6777,-121.6555,52.0,82,1,9.22
19,Shingu,JP,2021-04-19 05:09:42,33.7333,135.9833,62.6,45,0,18.41
20,Kaeo,NZ,2021-04-19 05:09:42,-35.1,173.7833,64.99,71,81,5.01
21,Tasiilaq,GL,2021-04-19 05:09:43,65.6145,-37.6368,14.0,62,0,4.61
22,Gillette,US,2021-04-19 05:09:43,44.2911,-105.5022,32.0,100,90,19.57
23,Bonthe,SL,2021-04-19 05:09:44,7.5264,-12.505,79.63,82,72,4.63
24,Victoria,HK,2021-04-19 05:09:44,22.2855,114.1577,75.0,64,99,4.0
25,Cape Town,ZA,2021-04-19 05:08:28,-33.9258,18.4232,64.4,88,0,26.46
26,Buala,SB,2021-04-19 05:09:45,-8.145,159.5921,84.36,72,88,4.36
27,Bluff,NZ,2021-04-19 05:09:46,-46.6,168.3333,60.01,78,79,5.99
28,Fairbanks,US,2021-04-19 05:09:46,64.8378,-147.7164,51.8,37,1,3.49
29,Butaritari,KI,2021-04-19 05:09:47,3.0707,172.7902,83.43,76,40,11.32
30,Manaure,CO,2021-04-19 05:09:47,11.7751,-72.4445,79.68,72,97,15.43
31,Vaini,TO,2021-04-19 05:09:47,-21.2,-175.2,82.4,74,20,6.91
32,Wladyslawowo,PL,2021-04-19 05:09:48,54.7909,18.4009,43.0,87,0,3.44
33,Tuktoyaktuk,CA,2021-04-19 05:09:48,69.4541,-133.0374,33.8,75,1,11.5
34,Maku,IR,2021-04-19 05:09:49,39.2911,44.4521,62.06,49,86,5.82
35,Hobart,AU,2021-04-19 05:08:07,-42.8794,147.3294,66.99,34,75,27.63
36,Adrar,MR,2021-04-19 05:09:50,20.5022,-10.0711,73.63,11,21,7.0
37,Port Alfred,ZA,2021-04-19 05:09:50,-33.5906,26.891,70.99,72,3,22.75
38,Vao,NC,2021-04-19 05:09:51,-22.6667,167.4833,77.58,81,97,9.89
39,Dingle,PH,2021-04-19 05:09:51,10.9995,122.6711,87.22,52,100,11.61
40,Santa Cruz,BO,2021-04-19 05:09:52,-17.8,-63.1667,69.08,91,7,3.04
41,Ballina,AU,2021-04-19 05:09:52,-28.8667,153.5667,75.2,64,75,12.66
42,Awbari,LY,2021-04-19 05:09:53,26.5921,12.7805,64.13,26,6,15.55
43,Shenjiamen,CN,2021-04-19 05:09:53,29.9576,122.298,58.71,61,0,11.92
44,Ushuaia,AR,2021-04-19 05:09:54,-54.8,-68.3,50.0,76,90,3.44
45,Shache,CN,2021-04-19 05:09:54,38.4167,77.2406,68.79,20,99,13.29
46,Gunjur,GM,2021-04-19 05:09:55,13.2019,-16.7339,68.0,88,0,2.3
47,Sembakung,ID,2021-04-19 05:09:56,3.8167,117.25,89.6,66,20,4.61
48,Sangar,RU,2021-04-19 05:09:56,63.9242,127.4739,22.57,70,100,9.91
49,Yerbogachen,RU,2021-04-19 05:09:56,61.2767,108.0108,32.88,51,98,11.77
50,Xichang,CN,2021-04-19 05:09:57,27.8964,102.2634,78.94,30,31,8.37
51,Talnakh,RU,2021-04-19 05:07:22,69.4865,88.3972,3.78,85,53,5.5
52,Esperance,AU,2021-04-19 05:09:58,-33.8667,121.9,73.4,49,47,14.97
53,Codogno,IT,2021-04-19 05:09:58,45.1619,9.7022,45.0,77,93,2.44
54,Pangnirtung,CA,2021-04-19 05:09:59,66.1451,-65.7125,4.14,81,63,7.65
55,Raudeberg,NO,2021-04-19 05:09:59,61.9875,5.1352,48.99,57,95,6.71
56,Kurara,IN,2021-04-19 05:10:00,25.9833,79.9833,98.62,10,2,7.61
57,Georgetown,MY,2021-04-19 05:07:27,5.4112,100.3354,87.8,70,40,9.22
58,Saint George,US,2021-04-19 05:10:01,37.1041,-113.5841,66.2,12,1,14.97
59,Namatanai,PG,2021-04-19 05:10:01,-3.6667,152.4333,86.07,66,91,7.2
60,Burns Lake,CA,2021-04-19 05:10:02,54.2331,-125.7533,44.6,33,1,2.3
61,Albany,US,2021-04-19 05:05:32,42.6001,-73.9662,46.0,88,78,3.78
62,Leh,IN,2021-04-19 05:10:03,34.1667,77.5833,33.67,45,85,4.16
63,Barrow,US,2021-04-19 05:10:03,71.2906,-156.7887,28.4,69,1,9.22
64,Punta Arenas,CL,2021-04-19 05:10:04,-53.15,-70.9167,44.6,87,0,3.44
65,Severnoye,RU,2021-04-19 05:10:04,56.3491,78.3619,17.13,61,100,14.18
66,Pevek,RU,2021-04-19 05:10:05,69.7008,170.3133,28.24,73,69,17.18
67,Ayan,RU,2021-04-19 05:10:05,56.45,138.1667,31.57,97,100,14.45
68,Cherskiy,RU,2021-04-19 05:10:05,68.75,161.3,22.39,81,58,10.92
69,Naze,JP,2021-04-19 05:10:06,28.3667,129.4833,73.4,49,20,14.97
70,Kahului,US,2021-04-19 05:10:06,20.8947,-156.47,73.4,83,40,13.8
71,Glendive,US,2021-04-19 05:10:07,47.1053,-104.7125,33.01,64,40,4.61
72,Saint-Pierre,RE,2021-04-19 05:10:07,-21.3393,55.4781,77.0,83,90,14.97
73,Saint Anthony,US,2021-04-19 05:10:08,45.0205,-93.218,39.99,70,90,11.5
74,Neiafu,TO,2021-04-19 05:10:08,-18.65,-173.9833,80.6,69,40,4.61
75,Hofn,IS,2021-04-19 05:10:09,64.2539,-15.2082,37.33,71,42,7.38
76,Sosnovo-Ozerskoye,RU,2021-04-19 05:10:09,52.5249,111.5418,36.97,31,100,4.21
77,Puerto Ayora,EC,2021-04-19 05:10:10,-0.7393,-90.3518,73.99,97,100,1.99
78,Ponta Do Sol,PT,2021-04-19 05:10:11,32.6667,-17.1,57.0,68,4,4.0
79,Berdigestyakh,RU,2021-04-19 05:10:11,62.0989,126.6992,21.61,73,100,8.84
80,El Retorno,CO,2021-04-19 05:10:12,2.3302,-72.6276,71.78,98,100,3.13
81,Kodiak,US,2021-04-19 05:10:12,57.79,-152.4072,46.4,71,20,9.69
82,Busselton,AU,2021-04-19 05:10:12,-33.65,115.3333,68.0,75,63,1.01
83,Mnogovershinnyy,RU,2021-04-19 05:10:13,53.9353,139.9242,29.7,98,100,11.32
84,Havoysund,NO,2021-04-19 05:10:13,70.9963,24.6622,41.0,60,0,21.85
85,Indramayu,ID,2021-04-19 05:10:14,-6.3264,108.32,85.19,65,8,4.79
86,Kaitangata,NZ,2021-04-19 05:10:14,-46.2817,169.8464,61.59,57,25,9.93
87,Urumqi,CN,2021-04-19 05:08:08,43.801,87.6005,73.4,16,0,2.24
88,Lavrentiya,RU,2021-04-19 05:10:15,65.5833,-171.0,29.82,88,85,5.84
89,Gubskaya,RU,2021-04-19 05:10:16,44.3164,40.6358,52.18,97,100,5.23
90,Havelock,US,2021-04-19 05:10:16,34.8791,-76.9013,59.0,88,1,3.76
91,Esmeraldas,BR,2021-04-19 05:10:17,-19.7625,-44.3139,69.8,82,0,3.44
92,Laguna,US,2021-04-19 05:10:17,38.421,-121.4238,69.8,42,1,4.61
93,Filingue,NE,2021-04-19 05:10:18,14.3521,3.3168,88.45,30,77,6.73
94,Faya,SA,2021-04-19 05:10:19,18.3851,42.4509,64.4,25,0,5.75
95,Rio Cuarto,AR,2021-04-19 05:10:19,-33.1307,-64.3499,64.99,85,13,5.99
96,Masvingo,ZW,2021-04-19 05:10:20,-20.0637,30.8277,52.95,85,0,1.83
97,Mataura,NZ,2021-04-19 05:10:20,-46.1927,168.8643,60.01,78,37,5.99
98,Bambous Virieux,MU,2021-04-19 05:10:21,-20.3428,57.7575,82.99,89,75,10.36
99,Tura,IN,2021-04-19 05:10:21,25.5198,90.2201,85.08,46,0,7.83
100,Castro,BR,2021-04-19 05:10:22,-24.7911,-50.0119,55.17,95,40,6.04
101,Sao Filipe,CV,2021-04-19 05:10:22,14.8961,-24.4956,72.61,75,63,9.35
102,Saint-Augustin,CA,2021-04-19 05:10:23,51.226,-58.6502,37.98,92,100,20.8
103,Carnarvon,AU,2021-04-19 05:10:23,-24.8667,113.6333,79.59,52,0,18.16
104,Cidreira,BR,2021-04-19 05:10:24,-30.1811,-50.2056,71.51,62,44,9.4
105,Tessalit,ML,2021-04-19 05:10:24,20.1986,1.0114,74.98,14,0,9.69
106,La Ronge,CA,2021-04-19 05:10:25,55.1001,-105.2842,30.2,47,95,5.75
107,Longyearbyen,SJ,2021-04-19 05:10:25,78.2186,15.6401,35.6,87,75,9.22
108,Tandlianwala,PK,2021-04-19 05:08:14,31.0333,73.1333,88.95,22,100,6.69
109,Sao Paulo De Olivenca,BR,2021-04-19 05:10:26,-3.3783,-68.8725,71.82,98,99,2.77
110,Khatanga,RU,2021-04-19 05:10:27,71.9667,102.5,6.21,86,95,8.41
111,Poum,NC,2021-04-19 05:10:28,-20.2333,164.0167,78.51,77,100,8.08
112,Bolobo,CD,2021-04-19 05:10:28,-2.1667,16.2333,71.58,97,100,1.99
113,Celestun,MX,2021-04-19 05:10:29,20.8667,-90.4,78.04,85,0,4.76
114,Hambantota,LK,2021-04-19 05:10:29,6.1241,81.1185,87.8,74,20,9.22
115,Tholen,NL,2021-04-19 05:10:29,51.5317,4.2208,43.0,93,75,1.14
116,Zhigansk,RU,2021-04-19 05:10:30,66.7697,123.3711,17.22,75,100,6.82
117,East London,ZA,2021-04-19 05:08:11,-33.0153,27.9116,69.8,35,0,12.66
118,Kendari,ID,2021-04-19 05:10:31,-3.945,122.4989,87.22,55,100,2.35
119,Sur,OM,2021-04-19 05:10:31,22.5667,59.5289,85.96,45,94,4.12
120,Nautanwa,IN,2021-04-19 05:10:32,27.4333,83.4167,96.58,12,0,8.99
121,Zdvinsk,RU,2021-04-19 05:10:32,54.7021,78.661,23.11,40,69,14.16
122,Qaanaaq,GL,2021-04-19 05:10:33,77.484,-69.3632,2.01,75,100,5.12
123,Santiago Del Estero,AR,2021-04-19 05:10:33,-27.7951,-64.2615,74.57,58,91,7.72
124,Chernyshevskiy,RU,2021-04-19 05:10:34,63.0128,112.4714,21.63,71,68,0.81
125,Ust-Shonosha,RU,2021-04-19 05:10:34,61.1531,41.343,36.66,55,3,6.69
126,Ionia,US,2021-04-19 05:10:35,42.9873,-85.0711,50.0,50,90,5.75
127,Diffa,NE,2021-04-19 05:10:35,13.3154,12.6113,81.55,9,99,7.2
128,Bonfim,BR,2021-04-19 05:10:36,3.0833,-59.95,76.32,71,72,8.97
129,Qazvin,IR,2021-04-19 05:10:36,36.2797,50.0049,62.6,51,0,5.08
130,Storslett,NO,2021-04-19 05:10:37,69.7678,21.0247,41.0,42,0,11.5
131,Weligama,LK,2021-04-19 05:10:37,5.9667,80.4167,86.0,65,49,8.63
132,Olga,RU,2021-04-19 05:10:38,43.7444,135.2892,63.21,27,3,14.65
133,Inyonga,TZ,2021-04-19 05:10:38,-6.7167,32.0667,61.79,87,84,5.46
134,Mwinilunga,ZM,2021-04-19 05:10:39,-11.7358,24.4293,56.46,86,85,5.95
135,Cockburn Town,TC,2021-04-19 05:10:39,21.4612,-71.1419,78.28,88,32,18.57
136,Omboue,GA,2021-04-19 05:10:40,-1.5746,9.2618,77.76,88,100,1.01
137,Ilulissat,GL,2021-04-19 05:10:40,69.2167,-51.1,12.2,52,35,25.32
138,Isla Aguada,MX,2021-04-19 05:10:41,18.7833,-91.4667,80.08,79,57,9.93
139,Umm Kaddadah,SD,2021-04-19 05:10:41,13.6017,26.6876,78.57,7,32,8.77
140,Castanos,MX,2021-04-19 05:10:42,26.7833,-101.4167,57.29,46,3,1.95
141,Burgthann,DE,2021-04-19 05:09:08,49.352,11.3115,43.0,93,75,4.61
142,Avarua,CK,2021-04-19 05:08:31,-21.2078,-159.775,80.6,78,75,13.8
143,Jamestown,US,2021-04-19 05:07:02,42.097,-79.2353,44.01,87,75,6.91
144,Pacific Grove,US,2021-04-19 05:08:18,36.6177,-121.9166,52.0,76,1,4.61
145,Comodoro Rivadavia,AR,2021-04-19 05:10:44,-45.8667,-67.5,62.6,67,0,2.3
146,Cherepovets,RU,2021-04-19 05:08:48,59.1333,37.9,37.4,48,0,11.18
147,Arilje,RS,2021-04-19 05:10:44,43.7531,20.0956,44.6,100,90,3.44
148,Maldonado,UY,2021-04-19 05:10:45,-34.6667,-54.9167,63.0,94,0,8.05
149,Nikolskoye,RU,2021-04-19 05:10:45,59.7035,30.7861,43.0,61,0,6.71
150,Goulburn,AU,2021-04-19 05:10:46,-34.75,149.7167,64.0,54,26,1.01
151,Makinsk,KZ,2021-04-19 05:10:46,52.6292,70.4169,26.78,38,8,14.16
152,Tungor,RU,2021-04-19 05:10:47,53.3808,142.9564,31.1,98,100,21.0
153,Rundu,NA,2021-04-19 05:10:48,-17.9333,19.7667,54.95,57,0,6.2
154,Puerto Penasco,MX,2021-04-19 05:10:48,31.3167,-113.5333,75.99,20,14,10.18
155,Miyako,JP,2021-04-19 05:10:49,39.6367,141.9525,57.56,52,55,17.45
156,Santa Clara,CU,2021-04-19 05:10:49,22.4,-79.9667,75.2,83,1,3.44
157,Kununurra,AU,2021-04-19 05:10:50,-15.7667,128.7333,89.6,27,8,5.75
158,Provideniya,RU,2021-04-19 05:10:50,64.3833,-173.3,32.0,69,0,4.47
159,Riyadh,SA,2021-04-19 05:10:51,24.6877,46.7219,80.6,26,0,3.44
160,Griffith,US,2021-04-19 05:10:52,41.5284,-87.4237,48.99,65,40,5.75
161,Egvekinot,RU,2021-04-19 05:10:52,66.3167,-179.1667,27.12,93,100,6.89
162,Yantal,RU,2021-04-19 05:10:53,56.8471,105.2542,39.42,50,59,12.8
163,Port Elizabeth,ZA,2021-04-19 05:10:53,-33.918,25.5701,66.2,82,75,26.46
164,Kormilovka,RU,2021-04-19 05:10:54,55.0026,74.1028,23.0,39,0,11.18
165,San Andres,CO,2021-04-19 05:08:21,12.5847,-81.7006,82.4,83,40,5.75
166,Cabo San Lucas,MX,2021-04-19 05:10:54,22.8909,-109.9124,69.01,77,1,14.72
167,Severo-Kurilsk,RU,2021-04-19 05:10:55,50.6789,156.125,35.71,97,100,29.93
168,Mezen,RU,2021-04-19 05:10:56,65.8522,44.24,34.32,54,99,6.85
169,Montenegro,ME,2021-04-19 05:10:56,42.5,19.3,46.4,87,75,1.14
170,Nyzhni Sirohozy,UA,2021-04-19 05:10:56,46.8484,34.3804,49.8,77,99,2.06
171,Bethel,US,2021-04-19 05:10:57,41.3712,-73.414,46.99,75,1,3.44
172,Moose Factory,CA,2021-04-19 05:10:57,51.2585,-80.6094,37.4,60,20,6.91
173,Barvinkove,UA,2021-04-19 05:10:58,48.9097,37.0205,50.27,69,100,0.34
174,Bengkulu,ID,2021-04-19 05:10:58,-3.8004,102.2655,84.13,66,20,7.52
175,Nome,US,2021-04-19 05:10:59,64.5011,-165.4064,37.99,75,90,2.71
176,New Norfolk,AU,2021-04-19 05:10:59,-42.7826,147.0587,66.0,51,91,8.99
177,Anadyr,RU,2021-04-19 05:11:00,64.75,177.4833,24.8,80,40,4.47
178,Rudbar,AF,2021-04-19 05:11:00,30.15,62.6,82.2,12,100,8.79
179,Pisco,PE,2021-04-19 05:08:54,-13.7,-76.2167,66.2,82,0,3.44
180,Yulara,AU,2021-04-19 05:11:02,-25.2406,130.9889,73.4,20,0,9.22
181,Yuksekova,TR,2021-04-19 05:11:02,37.5736,44.2872,50.0,81,75,4.61
182,Birao,CF,2021-04-19 05:11:03,10.2849,22.7882,78.6,15,100,0.34
183,Airai,TL,2021-04-19 05:11:04,-8.9266,125.4092,73.85,45,68,2.75
184,Arraial Do Cabo,BR,2021-04-19 05:11:05,-22.9661,-42.0278,74.79,82,93,14.58
185,Namibe,AO,2021-04-19 05:06:16,-15.1961,12.1522,81.1,66,12,5.28
186,Mar Del Plata,AR,2021-04-19 05:10:51,-38.0023,-57.5575,64.99,94,0,4.61
187,Vasudevanallur,IN,2021-04-19 05:11:06,9.2333,77.4167,88.77,51,58,2.39
188,Karratha,AU,2021-04-19 05:11:07,-20.7377,116.8463,87.37,47,0,11.05
189,Gusau,NG,2021-04-19 05:11:07,12.1628,6.6614,81.12,46,80,10.16
190,Morehead,US,2021-04-19 05:11:08,37.2711,-87.1764,48.99,93,90,2.93
191,Flinders,AU,2021-04-19 05:11:08,-34.5833,150.8552,75.0,52,7,4.0
192,Fukue,JP,2021-04-19 05:11:09,32.6881,128.8419,64.4,36,0,13.8
193,Coquimbo,CL,2021-04-19 05:11:09,-29.9533,-71.3436,55.4,88,90,6.91
194,Adigeni,GE,2021-04-19 05:11:10,41.6819,42.6987,62.6,82,75,12.66
195,Husavik,IS,2021-04-19 05:11:10,66.0449,-17.3389,35.6,48,0,9.22
196,Huntsville,US,2021-04-19 05:09:24,34.7304,-86.5861,54.0,76,1,4.61
197,Uvira,CD,2021-04-19 05:11:11,-3.4067,29.1458,72.84,83,100,4.52
198,Saint-Francois,FR,2021-04-19 05:11:12,46.4154,3.9054,41.0,93,0,4.61
199,Saskylakh,RU,2021-04-19 05:11:12,71.9167,114.0833,9.86,85,96,11.72
200,College,US,2021-04-19 05:11:13,64.8569,-147.8028,51.8,49,20,3.62
201,Chokurdakh,RU,2021-04-19 05:11:13,70.6333,147.9167,13.82,88,29,9.6
202,Port Hardy,CA,2021-04-19 05:11:14,50.6996,-127.4199,51.8,76,20,3.44
203,Klaksvik,FO,2021-04-19 05:11:14,62.2266,-6.589,41.0,87,100,2.3
204,Deer Lake,CA,2021-04-19 05:11:15,49.1667,-57.4316,35.6,100,90,9.22
205,Dikson,RU,2021-04-19 05:11:15,73.5069,80.5464,3.61,97,100,10.47
206,Bagdarin,RU,2021-04-19 05:11:16,54.4333,113.6,34.41,19,26,6.42
207,Karakol,KG,2021-04-19 05:11:16,42.4907,78.3936,43.07,86,96,3.6
208,Warrnambool,AU,2021-04-19 05:11:17,-38.3833,142.4833,62.01,75,95,8.01
209,Ostrovnoy,RU,2021-04-19 05:11:18,68.0531,39.5131,32.92,83,100,19.26
210,Acapulco,MX,2021-04-19 05:11:18,16.8634,-99.8901,75.52,64,5,6.87
211,Kalmunai,LK,2021-04-19 05:11:19,7.4167,81.8167,86.27,64,87,6.76
212,Chuy,UY,2021-04-19 05:11:19,-33.6971,-53.4616,61.72,78,38,6.96
213,Nabire,ID,2021-04-19 05:11:20,-3.3667,135.4833,83.68,72,91,5.19
214,Gushikawa,JP,2021-04-19 05:11:20,26.3544,127.8686,75.2,50,20,16.11
215,Ratnapura,LK,2021-04-19 05:07:04,6.6828,80.3992,88.65,61,50,4.59
216,Nancha,CN,2021-04-19 05:11:21,47.1333,129.2667,66.78,22,0,12.12
217,Pallavaram,IN,2021-04-19 05:11:22,12.9761,80.1836,91.4,58,20,5.75
218,Hithadhoo,MV,2021-04-19 05:11:22,-0.6,73.0833,82.69,67,82,5.3
219,Langham,CA,2021-04-19 05:11:23,52.3668,-106.9679,33.8,34,90,6.91
220,Tarko-Sale,RU,2021-04-19 05:11:23,64.9225,77.785,1.99,65,61,10.0
221,Smithers,CA,2021-04-19 05:11:24,54.7804,-127.1743,50.0,27,1,5.75
222,Lagoa,PT,2021-04-19 05:11:24,39.05,-27.9833,60.57,84,95,10.65
223,Vanimo,PG,2021-04-19 05:11:25,-2.6741,141.3028,80.31,80,82,1.61
224,Amazar,RU,2021-04-19 05:11:25,53.858,120.875,35.26,24,2,8.86
225,Sikasso,ML,2021-04-19 05:11:26,10.9167,-7.0,80.28,35,68,3.78
226,Lebu,CL,2021-04-19 05:11:27,-37.6167,-73.65,55.85,88,54,11.7
227,Terme,TR,2021-04-19 05:11:27,41.2092,36.9739,62.01,87,75,3.44
228,Perth,AU,2021-04-19 05:07:57,-31.9333,115.8333,73.0,53,40,11.5
229,Pratapgarh,IN,2021-04-19 05:11:28,24.0333,74.7833,95.63,11,56,6.82
230,Chato,TZ,2021-04-19 05:09:14,-2.6378,31.7669,65.98,92,98,6.13
231,Jinchang,CN,2021-04-19 05:11:29,38.4953,102.1739,58.57,25,100,2.93
232,Constitucion,CL,2021-04-19 05:11:30,-35.3333,-72.4167,54.55,69,36,2.95
233,Kapaa,US,2021-04-19 05:11:30,22.0752,-159.319,73.4,68,20,11.5
234,Oum Hadjer,TD,2021-04-19 05:11:31,13.2954,19.6966,81.48,10,36,9.55
235,Salalah,OM,2021-04-19 05:11:31,17.0151,54.0924,84.2,70,40,4.61
236,Cooma,AU,2021-04-19 05:11:32,-36.2333,149.1333,68.0,34,4,11.5
237,Kabare,CD,2021-04-19 05:11:32,-2.4683,28.8242,61.83,97,100,4.34
238,Iqaluit,CA,2021-04-19 05:11:33,63.7506,-68.5145,15.8,73,90,3.44
239,Kenai,US,2021-04-19 05:11:33,60.5544,-151.2583,48.2,53,75,9.22
240,Tiksi,RU,2021-04-19 05:11:34,71.6872,128.8694,12.85,80,94,10.04
241,Deputatskiy,RU,2021-04-19 05:11:34,69.3,139.9,14.45,82,58,4.16
242,Haines Junction,CA,2021-04-19 05:11:35,60.7522,-137.5108,39.2,52,11,1.14
243,Alyangula,AU,2021-04-19 05:11:35,-13.8483,136.4192,89.6,51,90,8.05
244,Skibbereen,IE,2021-04-19 05:11:36,51.55,-9.2667,44.6,100,75,9.22
245,Najran,SA,2021-04-19 05:11:36,17.4924,44.1277,71.6,21,0,7.4
246,Caraballeda,VE,2021-04-19 05:11:37,10.6112,-66.8522,80.6,78,75,11.12
247,Port Augusta,AU,2021-04-19 05:11:37,-32.5,137.7667,73.4,33,75,3.44
248,Pangody,RU,2021-04-19 05:11:38,65.85,74.4859,3.43,90,35,12.57
249,Linda,US,2021-04-19 05:11:38,39.1277,-121.5508,66.99,45,1,4.61
250,Leland,US,2021-04-19 05:11:39,34.2563,-78.0447,59.0,94,1,3.56
251,Abu Dhabi,AE,2021-04-19 05:11:39,24.4667,54.3667,82.4,47,0,3.44
252,Richards Bay,ZA,2021-04-19 05:11:40,-28.783,32.0377,62.37,80,0,10.83
253,Enkoping,SE,2021-04-19 05:08:01,59.6361,17.0777,41.0,75,4,4.61
254,Portland,US,2021-04-19 05:09:00,45.5234,-122.6762,66.2,26,1,10.36
255,Lompoc,US,2021-04-19 05:06:42,34.6391,-120.4579,48.2,93,0,6.96
256,Torbay,CA,2021-04-19 05:11:41,47.6666,-52.7314,36.0,100,90,2.3
257,Abha,SA,2021-04-19 05:11:42,18.2164,42.5053,64.4,25,0,5.75
258,Kedrovyy,RU,2021-04-19 05:11:42,56.1667,91.8167,39.2,93,75,13.42
259,Dumka,IN,2021-04-19 05:11:43,24.2667,87.25,100.76,8,0,17.16
260,Thai Binh,VN,2021-04-19 05:07:55,20.45,106.3333,82.4,78,75,9.22
261,Vardo,NO,2021-04-19 05:11:44,70.3705,31.1107,35.6,64,0,8.05
262,Imbituba,BR,2021-04-19 05:11:44,-28.24,-48.6703,69.8,88,75,6.91
263,Grants,US,2021-04-19 05:11:45,35.1473,-107.8514,33.8,86,1,1.34
264,Vestmanna,FO,2021-04-19 05:11:45,62.1564,-7.1664,41.0,87,100,2.3
265,Dinguiraye,GN,2021-04-19 05:11:46,11.3,-10.7167,81.46,42,84,2.59
266,Assiniboia,CA,2021-04-19 05:11:46,49.6334,-105.9845,21.2,73,95,2.3
267,Srednekolymsk,RU,2021-04-19 05:11:46,67.45,153.6833,29.86,73,25,7.4
268,Port Hedland,AU,2021-04-19 05:11:47,-20.3167,118.5667,87.8,25,0,12.66
269,The Pas,CA,2021-04-19 05:11:48,53.8251,-101.2541,28.4,54,90,8.05
270,Thompson,CA,2021-04-19 05:11:48,55.7435,-97.8558,21.2,63,1,5.75
271,Mosquera,CO,2021-04-19 05:11:50,4.7059,-74.2302,53.6,87,75,6.91
272,Almas,RO,2021-04-19 05:11:51,46.2833,22.2333,42.93,94,100,1.14
273,Seoul,KR,2021-04-19 05:08:58,37.5683,126.9778,69.8,45,0,12.66
274,Olafsvik,IS,2021-04-19 05:11:51,64.8945,-23.7142,33.66,80,100,12.59
275,Peniche,PT,2021-04-19 05:11:52,39.3558,-9.3811,55.99,91,71,6.15
276,Chadiza,ZM,2021-04-19 05:11:52,-14.0678,32.4392,58.1,92,95,6.2
277,Dicabisagan,PH,2021-04-19 05:11:53,17.0818,122.4157,73.94,90,100,12.73
278,Luderitz,NA,2021-04-19 05:11:53,-26.6481,15.1594,72.88,48,7,4.92
279,Los Llanos De Aridane,ES,2021-04-19 05:11:54,28.6585,-17.9182,64.4,68,0,12.66
280,Ribeira Grande,PT,2021-04-19 05:11:54,38.5167,-28.7,61.45,88,74,9.24
281,Tanout,NE,2021-04-19 05:08:08,14.9709,8.8879,77.56,10,10,2.71
282,Zeya,RU,2021-04-19 05:11:55,53.75,127.2667,34.39,46,31,17.85
283,Bathsheba,BB,2021-04-19 05:11:55,13.2167,-59.5167,78.8,61,20,19.57
284,Vulturesti,RO,2021-04-19 05:11:56,47.5167,26.45,46.4,87,75,0.31
285,Sambava,MG,2021-04-19 05:11:57,-14.2667,50.1667,77.86,85,90,15.48
286,Bridlicna,CZ,2021-04-19 05:11:57,49.9117,17.3711,41.0,91,100,1.01
287,Nioro,GM,2021-04-19 05:11:58,13.35,-15.75,77.05,40,46,3.74
288,Fortuna,US,2021-04-19 05:11:39,40.5982,-124.1573,48.99,100,90,4.61
289,Zalantun,CN,2021-04-19 05:11:58,48.0,122.7167,50.9,24,0,22.5
290,Mount Gambier,AU,2021-04-19 05:11:59,-37.8333,140.7667,62.6,67,90,13.8
291,Palmer,US,2021-04-19 05:11:59,42.1584,-72.3287,46.0,93,90,1.07
292,Asau,RO,2021-04-19 05:12:00,46.4333,26.4,43.0,65,100,0.43
293,Acarau,BR,2021-04-19 05:12:00,-2.8856,-40.12,76.55,89,100,7.87
294,Korla,CN,2021-04-19 05:12:01,41.7597,86.1469,68.16,21,100,4.74
295,Pemberton,CA,2021-04-19 05:12:01,50.3164,-122.8027,66.2,30,23,11.5
296,Jinxiang,CN,2021-04-19 05:12:01,27.4327,120.6062,62.02,54,100,7.23
297,Matadi,CD,2021-04-19 05:12:02,-5.8167,13.45,76.46,95,100,0.92
298,Shchors,UA,2021-04-19 05:12:02,51.8186,31.945,42.84,85,7,7.29
299,Coihaique,CL,2021-04-19 05:12:03,-45.5752,-72.0662,51.8,82,75,14.97
300,Maltahohe,NA,2021-04-19 05:12:03,-24.8333,16.9833,59.72,64,74,3.71
301,Abu Kamal,SY,2021-04-19 05:12:04,34.4506,40.9171,81.97,22,100,1.14
302,Batagay-Alyta,RU,2021-04-19 05:12:04,67.8006,130.4114,14.04,70,99,3.47
303,Santa Rosalia,MX,2021-04-19 05:12:05,27.3167,-112.2833,66.92,35,0,5.08
304,Ketchikan,US,2021-04-19 05:09:52,55.3422,-131.6461,62.6,33,1,3.44
305,Nelson Bay,AU,2021-04-19 05:12:06,-32.7167,152.15,73.4,38,20,9.22
306,Porteirinha,BR,2021-04-19 05:12:06,-15.7433,-43.0283,68.49,69,62,4.12
307,Beloha,MG,2021-04-19 05:12:06,-25.1667,45.05,66.92,68,0,12.95
308,Pho Chai,TH,2021-04-19 05:12:07,16.3283,103.7703,93.0,66,40,5.75
309,Rovaniemi,FI,2021-04-19 05:10:24,66.5,25.7167,37.4,60,0,4.61
310,Mombetsu,JP,2021-04-19 05:12:08,44.3525,143.3525,48.2,61,75,17.27
311,Tamiahua,MX,2021-04-19 05:12:08,21.2667,-97.45,67.06,87,100,10.58
312,Los Barrios,ES,2021-04-19 05:12:09,36.1848,-5.4921,62.6,82,20,11.5
313,Goma,CD,2021-04-19 05:08:14,-1.6792,29.2228,63.64,88,70,3.06
314,Fare,PF,2021-04-19 05:12:09,-16.7,-151.0167,82.47,72,3,14.0
315,Nanortalik,GL,2021-04-19 05:12:10,60.1432,-45.2371,30.33,52,62,5.53
316,Buin,CL,2021-04-19 05:12:10,-33.7333,-70.75,66.99,82,5,2.3
317,Oktyabrskiy,RU,2021-04-19 05:12:10,54.4815,53.471,36.81,58,98,15.21
318,Barinas,VE,2021-04-19 05:10:12,8.6226,-70.2075,79.14,52,96,5.35
319,Riverton,US,2021-04-19 05:12:11,40.5219,-111.9391,48.99,46,1,6.91
320,Puerto Escondido,MX,2021-04-19 05:12:12,15.85,-97.0667,78.8,83,1,2.3
321,Bonavista,CA,2021-04-19 05:12:12,48.6499,-53.1147,35.6,100,100,2.3
322,Soyo,AO,2021-04-19 05:12:13,-6.1349,12.3689,79.61,86,98,3.74
323,Kruisfontein,ZA,2021-04-19 05:12:13,-34.0033,24.7314,68.0,75,62,4.0
324,Sao Gabriel Da Cachoeira,BR,2021-04-19 05:12:13,-0.1303,-67.0892,70.99,99,100,0.85
325,Saldanha,ZA,2021-04-19 05:11:44,-33.0117,17.9442,62.6,88,59,5.75
326,Souillac,MU,2021-04-19 05:12:14,-20.5167,57.5167,80.6,83,75,11.5
327,Bartica,GY,2021-04-19 05:12:14,6.4,-58.6167,73.4,94,20,2.3
328,Lofthus,NO,2021-04-19 05:12:15,59.9468,10.8018,46.0,86,0,4.61
329,Sabang,ID,2021-04-19 05:12:15,5.8933,95.3214,83.7,70,99,17.58
330,Codrington,AU,2021-04-19 05:12:16,-38.2667,141.9667,66.33,53,98,13.4
331,Ukiah,US,2021-04-19 05:12:16,39.1502,-123.2078,62.6,34,1,4.23
332,Mersing,MY,2021-04-19 05:12:17,2.4312,103.8405,87.8,79,40,6.91
333,Uyar,RU,2021-04-19 05:12:17,55.81,94.3153,43.5,82,100,24.11
334,Burnie,AU,2021-04-19 05:12:18,-41.0667,145.9167,62.01,73,92,8.99
335,Tautira,PF,2021-04-19 05:12:18,-17.7333,-149.15,82.4,74,20,4.61
336,Rawson,AR,2021-04-19 05:11:27,-43.3002,-65.1023,66.63,43,74,14.23
337,Redcar,GB,2021-04-19 05:09:21,54.6166,-1.06,37.99,70,24,3.87
338,Maxixe,MZ,2021-04-19 05:12:19,-23.8597,35.3472,62.6,94,20,2.06
339,Xihe,CN,2021-04-19 05:12:20,31.6864,113.4659,64.26,65,95,7.92
340,Kemijarvi,FI,2021-04-19 05:12:20,66.7131,27.4306,37.44,88,13,5.1
341,Homer,US,2021-04-19 05:09:13,59.6425,-151.5483,52.0,54,20,9.22
342,Sibolga,ID,2021-04-19 05:12:21,1.7427,98.7792,84.79,64,94,4.25
343,Geraldton,AU,2021-04-19 05:12:21,-28.7667,114.6,75.2,46,15,17.27
344,Colac,AU,2021-04-19 05:12:22,-38.3333,143.5833,62.01,89,72,9.71
345,Zhezkazgan,KZ,2021-04-19 05:12:22,47.8043,67.7144,54.37,64,97,9.89
346,Mackay,AU,2021-04-19 05:12:22,-21.15,149.2,80.6,69,33,16.11
347,Kavaratti,IN,2021-04-19 05:12:23,10.5669,72.642,83.84,69,15,4.56
348,Mananjary,MG,2021-04-19 05:12:23,-21.2167,48.3333,69.39,79,100,6.53
349,Krasnoselkup,RU,2021-04-19 05:12:24,65.7,82.4667,7.2,83,16,22.32
350,Atar,MR,2021-04-19 05:12:24,20.5169,-13.0499,74.98,17,23,7.36
351,Dire,ML,2021-04-19 05:12:24,12.2833,-10.9667,89.1,30,100,0.31
352,Kuznetsk,RU,2021-04-19 05:12:25,53.1167,46.6004,43.93,69,100,13.69
353,Chesma,RU,2021-04-19 05:12:25,53.8111,60.6533,29.84,31,56,15.9
354,Praia,CV,2021-04-19 05:12:26,14.9215,-23.5087,68.0,83,20,12.66
355,Calama,CL,2021-04-19 05:12:26,-22.4667,-68.9333,42.8,42,0,16.11
356,Faanui,PF,2021-04-19 05:12:27,-16.4833,-151.75,82.9,69,0,13.33
357,Sorland,NO,2021-04-19 05:12:27,67.667,12.6934,44.6,70,0,13.8
358,Lanxi,CN,2021-04-19 05:12:27,29.2195,119.477,74.1,52,6,5.12
359,Gat,IL,2021-04-19 05:12:28,31.61,34.7642,88.0,28,99,8.01
360,Mudgee,AU,2021-04-19 05:12:28,-32.5943,149.5871,70.0,30,0,8.05
361,Ryotsu,JP,2021-04-19 05:12:29,38.0833,138.4333,59.0,58,40,20.71
362,Brejo Santo,BR,2021-04-19 05:12:29,-7.4933,-38.9872,73.4,94,75,5.75
363,Kathu,TH,2021-04-19 05:12:30,7.9178,98.3332,87.01,89,75,4.61
364,Lumby,CA,2021-04-19 05:12:30,50.2498,-118.969,50.0,43,73,1.14
365,Dok Kham Tai,TH,2021-04-19 05:12:31,19.1624,99.9934,93.11,41,0,2.24
366,Braedstrup,DK,2021-04-19 05:12:31,55.9708,9.6085,45.0,78,33,4.72
367,Nuuk,GL,2021-04-19 05:11:01,64.1835,-51.7216,24.8,58,90,17.27
368,Ourossogui,SN,2021-04-19 05:12:32,15.6064,-13.3211,85.57,12,68,9.4
369,Limoges,FR,2021-04-19 05:12:33,45.75,1.3333,41.0,70,0,4.61
370,Kamen-Rybolov,RU,2021-04-19 05:12:33,44.7481,132.0403,57.07,34,0,6.38
371,Mitsamiouli,KM,2021-04-19 05:12:34,-11.3847,43.2844,78.8,89,40,6.91
372,Mahebourg,MU,2021-04-19 05:12:34,-20.4081,57.7,80.6,83,75,11.5
373,Veisiejai,LT,2021-04-19 05:12:34,54.1,23.7,42.8,81,0,3.44
374,Luzhou,CN,2021-04-19 05:12:35,28.8724,105.4405,61.59,86,100,3.49
375,Sampit,ID,2021-04-19 05:12:35,-2.5333,112.95,93.81,40,74,2.64
376,Russell,US,2021-04-19 05:12:36,32.3502,-85.1999,62.6,72,90,4.61
377,Ampanihy,MG,2021-04-19 05:12:36,-24.7,44.75,65.39,57,0,11.12
378,Kloulklubed,PW,2021-04-19 05:12:37,7.0419,134.2556,77.0,88,90,8.05
379,Newport,GB,2021-04-19 05:12:37,51.5877,-2.9984,37.99,89,37,4.56
380,Aklavik,CA,2021-04-19 05:12:37,68.2191,-135.0107,48.2,49,68,4.61
381,Tombouctou,ML,2021-04-19 05:12:38,20.0,-3.0,72.95,19,1,11.54
382,Marfino,RU,2021-04-19 05:12:39,55.7028,37.3822,48.2,53,0,15.66
383,Chapais,CA,2021-04-19 05:12:39,49.7834,-74.8492,30.2,93,1,2.71
384,Jutai,BR,2021-04-19 05:12:40,-5.1833,-68.9,71.26,99,100,2.06
385,Moron,AR,2021-04-19 05:10:39,-34.6534,-58.6198,69.01,94,58,7.83
386,Chukhloma,RU,2021-04-19 05:12:41,58.7525,42.6825,35.02,62,9,10.76
387,Bella Union,UY,2021-04-19 05:12:42,-30.2752,-57.6007,61.16,85,21,8.34
388,Mikuni,JP,2021-04-19 05:12:42,36.2171,136.1519,60.8,48,20,17.27
389,Ypsonas,CY,2021-04-19 05:12:42,34.6884,32.9574,73.4,56,0,3.44
390,Ferme-Neuve,CA,2021-04-19 05:12:43,46.7001,-75.4493,44.6,81,100,1.14
391,Pokrovsk,UA,2021-04-19 05:12:43,48.282,37.1758,49.6,68,95,4.21
392,Lorengau,PG,2021-04-19 05:12:44,-2.0226,147.2712,84.4,69,98,9.46
393,Yichun,CN,2021-04-19 05:12:44,47.7,128.9,62.19,25,7,12.93
394,Brae,GB,2021-04-19 05:12:45,60.3964,-1.353,44.6,81,99,12.66
395,Katsuura,JP,2021-04-19 05:12:45,35.1333,140.3,71.01,28,20,10.36
396,Blytheville,US,2021-04-19 05:12:45,35.9273,-89.919,48.2,87,1,3.44
397,Gigant,RU,2021-04-19 05:12:46,46.5066,41.3419,50.97,94,100,1.5
398,Kamaishi,JP,2021-04-19 05:12:46,39.2667,141.8833,55.4,50,75,10.36
399,Quchan,IR,2021-04-19 05:12:47,37.106,58.5095,64.67,30,100,2.71
400,Valparaiso,CL,2021-04-19 05:12:47,-33.0393,-71.6273,55.0,79,34,3.6
401,Hun,LY,2021-04-19 05:12:47,29.1268,15.9477,58.28,75,15,10.96
402,Buraydah,SA,2021-04-19 05:12:48,26.326,43.975,66.2,48,0,5.95
403,Wadi,IN,2021-04-19 05:12:48,17.0667,76.9833,96.84,22,5,9.24
404,Tongliao,CN,2021-04-19 05:12:49,43.6125,122.2653,70.54,20,5,18.32
405,Zheleznodorozhnyy,RU,2021-04-19 05:12:49,55.7503,38.0042,48.2,57,0,11.18
406,San Quintin,MX,2021-04-19 05:11:31,30.4833,-115.95,61.27,66,0,1.52
407,Norman Wells,CA,2021-04-19 05:12:31,65.282,-126.8329,42.8,52,1,9.22
408,Turkistan,KZ,2021-04-19 05:12:50,43.0,68.0,70.41,28,100,10.2
409,Tacoronte,ES,2021-04-19 05:12:50,28.4769,-16.4102,66.0,88,75,17.27
410,Lasa,IT,2021-04-19 05:12:51,46.6166,10.7002,39.0,100,20,5.75
411,Sri Aman,MY,2021-04-19 05:12:51,1.2376,111.4621,87.8,70,40,2.3
412,Berlevag,NO,2021-04-19 05:12:52,70.8578,29.0864,39.2,56,0,12.66
413,Narsaq,GL,2021-04-19 05:12:27,60.9167,-46.05,28.4,34,90,9.22
414,Pittsburg,US,2021-04-19 05:12:52,38.028,-121.8847,71.6,24,1,4.61
415,Locri,IT,2021-04-19 05:12:53,38.2414,16.2623,51.01,76,20,3.44
416,Houma,US,2021-04-19 05:09:15,29.5958,-90.7195,61.0,82,90,5.75
417,Padang,ID,2021-04-19 05:12:53,-0.9492,100.3543,84.99,67,12,5.77
418,Mata,PT,2021-04-19 05:12:54,40.683,-7.4592,52.0,81,100,2.84
419,Osoyoos,CA,2021-04-19 05:12:54,49.0331,-119.4524,62.6,34,32,8.05
420,The Valley,AI,2021-04-19 05:09:03,18.217,-63.0578,79.0,78,20,8.05
421,Itarema,BR,2021-04-19 05:12:56,-2.9248,-39.9167,75.81,92,99,7.87
422,Novobelokatay,RU,2021-04-19 05:12:56,55.7062,58.9549,31.71,29,2,13.65
423,Nantucket,US,2021-04-19 05:12:56,41.2835,-70.0995,46.4,87,1,10.36
424,Lithgow,AU,2021-04-19 05:12:57,-33.4833,150.15,64.0,71,6,6.85
425,Santa Fe,AR,2021-04-19 05:12:57,-31.6333,-60.7,69.01,83,0,3.0
426,Byron Bay,AU,2021-04-19 05:08:06,-28.65,153.6167,73.4,64,75,12.66
427,Leningradskiy,RU,2021-04-19 05:12:58,69.3833,178.4167,29.66,75,63,15.86
428,Corralillo,CU,2021-04-19 05:12:59,22.9819,-80.5856,75.7,86,19,4.32
429,Kieta,PG,2021-04-19 05:12:59,-6.2167,155.6333,85.66,78,62,6.76
430,Boyolangu,ID,2021-04-19 05:13:00,-8.1181,111.8935,84.72,67,59,9.6
431,San Cristobal,VE,2021-04-19 05:13:00,7.7669,-72.225,67.24,79,95,2.28
432,Cap-Aux-Meules,CA,2021-04-19 05:13:00,47.3821,-61.8597,35.6,100,100,17.27
433,Pijijiapan,MX,2021-04-19 05:13:01,15.7011,-93.23,76.6,75,7,3.83
434,Maua,BR,2021-04-19 05:13:01,-23.6678,-46.4614,62.6,94,90,6.91
435,Abeche,TD,2021-04-19 05:13:02,13.8292,20.8324,78.98,9,61,9.93
436,Takhatgarh,IN,2021-04-19 05:13:02,25.3333,73.0,95.74,18,85,10.4
437,Sao Joao Da Barra,BR,2021-04-19 05:11:33,-21.6403,-41.0511,72.68,87,55,10.09
438,Charyshskoye,RU,2021-04-19 05:13:04,51.3978,83.5598,29.32,88,100,6.04
439,Guerrero Negro,MX,2021-04-19 05:13:05,27.9769,-114.0611,60.19,88,0,10.51
440,Paita,PE,2021-04-19 05:13:05,-5.0892,-81.1144,71.04,77,86,5.53
441,Gisborne,NZ,2021-04-19 05:13:06,-38.6533,178.0042,64.99,58,50,4.0
442,Soma,TR,2021-04-19 05:13:06,39.1855,27.6094,60.8,100,75,10.36
443,Marzuq,YE,2021-04-19 05:13:07,14.4,46.4667,75.18,38,100,2.44
444,Mount Isa,AU,2021-04-19 05:13:02,-20.7333,139.5,89.6,22,5,12.66
445,Springbok,ZA,2021-04-19 05:13:07,-29.6643,17.8865,64.24,36,2,3.29
446,Ouango,CF,2021-04-19 05:13:08,4.3133,22.5552,70.84,95,100,2.51
447,Green River,US,2021-04-19 05:13:08,41.5286,-109.4662,44.01,36,1,16.11
448,Gonaives,HT,2021-04-19 05:13:09,19.45,-72.6833,79.2,71,27,2.8
449,Rio Grande,BR,2021-04-19 05:13:09,-32.035,-52.0986,66.6,69,0,11.32
450,Pozo Colorado,PY,2021-04-19 05:13:09,-23.4923,-58.7972,68.74,66,0,6.06
451,Myitkyina,MM,2021-04-19 05:13:10,25.3833,97.4,95.65,27,6,2.33
452,Kurayoshi,JP,2021-04-19 05:13:10,35.4333,133.8167,68.0,48,20,13.8
453,Clovis,US,2021-04-19 05:12:56,36.8252,-119.7029,73.4,20,1,4.61
454,Lianzhou,CN,2021-04-19 05:13:11,24.7811,112.3825,65.73,96,100,1.77
455,Ailigandi,PA,2021-04-19 05:13:11,9.2333,-78.0167,78.21,86,100,3.87
456,Batsfjord,NO,2021-04-19 05:13:12,70.6345,29.7185,39.2,56,0,12.66
457,Nizhneangarsk,RU,2021-04-19 05:13:12,55.7833,109.55,25.36,55,4,1.36
458,West Richland,US,2021-04-19 05:11:44,46.3043,-119.3614,73.4,18,1,13.8
459,Saskatoon,CA,2021-04-19 05:10:01,52.1168,-106.6345,34.0,34,90,6.91
460,Saint-Joseph,RE,2021-04-19 05:13:13,-21.3667,55.6167,77.0,83,90,14.97
461,Nhulunbuy,AU,2021-04-19 05:13:13,-12.2333,136.7667,84.2,74,75,6.91
462,Minapasuk,PH,2021-04-19 05:13:14,10.6988,123.3536,80.78,71,100,8.72
463,Hovd,MN,2021-04-19 05:13:14,48.0056,91.6419,56.14,15,85,9.73
464,Aban,RU,2021-04-19 05:13:15,56.67,96.06,37.67,97,100,16.96
465,Bilibino,RU,2021-04-19 05:12:47,68.0546,166.4372,25.57,85,86,18.57
466,Jinji,CN,2021-04-19 05:13:15,23.2281,110.8261,66.52,95,100,4.9
467,Tadine,NC,2021-04-19 05:13:16,-21.55,167.8833,80.01,74,42,8.23
468,Kattivakkam,IN,2021-04-19 05:13:16,13.2167,80.3167,91.4,58,20,5.75
469,Lamar,US,2021-04-19 05:13:17,33.6668,-95.5836,46.4,87,1,3.44
470,Izumo,JP,2021-04-19 05:13:17,35.3667,132.7667,64.4,48,20,24.16
471,Talcahuano,CL,2021-04-19 05:13:18,-36.7167,-73.1167,57.2,82,90,4.61
472,Ushumun,RU,2021-04-19 05:13:18,52.7833,126.5333,37.87,27,10,22.91
473,Wagga Wagga,AU,2021-04-19 05:13:18,-35.1167,147.3667,66.2,48,40,8.05
474,Vrangel,RU,2021-04-19 05:13:19,42.7297,133.0839,47.32,58,0,14.12
475,Bubaque,GW,2021-04-19 05:13:19,11.2833,-15.8333,77.36,68,65,9.26
476,Avera,US,2021-04-19 05:13:20,33.194,-82.5271,60.8,77,1,4.61
477,Mayumba,GA,2021-04-19 05:13:20,-3.432,10.6554,77.63,90,100,6.02
478,Mackenzie,CA,2021-04-19 05:13:21,55.2999,-123.1698,39.2,52,1,6.91
479,Hami,CN,2021-04-19 05:13:21,42.8,93.45,71.15,16,81,11.95
480,Sept-Iles,CA,2021-04-19 05:12:02,50.2001,-66.3821,33.01,93,98,1.14
481,Axim,GH,2021-04-19 05:13:22,4.8699,-2.2405,77.34,85,100,3.85
482,Kurya,RU,2021-04-19 05:13:22,51.6003,82.2888,31.46,56,100,7.36
483,Loma De Gato,PH,2021-04-19 05:13:23,14.7833,121.0,93.0,46,40,8.05
484,Luganville,VU,2021-04-19 05:13:23,-15.5333,167.1667,83.98,73,95,5.59
485,Viseu,PT,2021-04-19 05:13:24,40.661,-7.9097,55.0,81,100,0.78
486,Eureka,US,2021-04-19 05:11:19,40.8021,-124.1637,50.0,89,83,1.99
487,Isla Vista,US,2021-04-19 05:13:24,34.4133,-119.861,68.0,42,1,6.91
488,Gimli,CA,2021-04-19 05:13:25,50.6336,-96.9907,24.8,63,90,9.22
489,Bayan,CN,2021-04-19 05:13:25,46.0833,127.4,68.02,19,0,14.58
490,Sobolevo,RU,2021-04-19 05:13:26,54.4299,31.8996,43.38,84,95,9.62
491,Grand Gaube,MU,2021-04-19 05:13:26,-20.0064,57.6608,82.99,74,70,7.0
492,Andenes,NO,2021-04-19 05:13:26,69.3143,16.1194,44.6,61,0,17.27
493,Truth Or Consequences,US,2021-04-19 05:13:27,33.1284,-107.2528,53.01,49,1,6.91
494,Sakakah,SA,2021-04-19 05:13:27,29.9697,40.2064,71.6,23,0,4.61
495,Chokwe,MZ,2021-04-19 05:13:28,-24.5333,32.9833,61.9,76,0,2.15
496,Iquique,CL,2021-04-19 05:13:28,-20.2208,-70.1431,66.2,72,90,4.61
497,Klimovo,RU,2021-04-19 05:13:29,52.3805,32.1923,41.9,86,11,8.88
498,Isangel,VU,2021-04-19 05:12:39,-19.55,169.2667,87.8,74,40,6.91
499,San Lazaro,BZ,2021-04-19 05:13:29,18.0387,-88.6622,73.99,96,94,0.67
500,Thunder Bay,CA,2021-04-19 05:10:11,48.4001,-89.3168,33.8,100,90,16.11
501,Matara,LK,2021-04-19 05:13:30,5.9485,80.5353,86.45,65,48,8.77
502,Ahuimanu,US,2021-04-19 05:13:31,21.4447,-157.8378,75.2,69,20,9.22
503,Port Blair,IN,2021-04-19 05:13:31,11.6667,92.75,86.94,61,12,10.56
504,Urusha,RU,2021-04-19 05:13:31,54.05,122.9,30.13,36,48,13.31
505,Carutapera,BR,2021-04-19 05:13:32,-1.195,-46.02,75.42,93,100,3.06
506,Ewo,CG,2021-04-19 05:13:32,-0.8725,14.8206,72.64,96,100,5.64
507,Kandi,BJ,2021-04-19 05:13:33,11.1342,2.9386,81.27,54,80,5.84
508,Biak,ID,2021-04-19 05:13:33,-0.9131,122.8766,79.75,75,100,0.89
509,Maumere,ID,2021-04-19 05:13:33,-8.6199,122.2111,84.94,61,85,9.37
510,Wakkanai,JP,2021-04-19 05:13:34,45.4094,141.6739,39.2,93,75,21.85
511,Grajau,BR,2021-04-19 05:13:34,-5.8194,-46.1386,71.01,99,100,2.8
512,Bela Vista,BR,2021-04-19 05:13:35,-22.1089,-56.5211,69.39,55,24,2.68
513,Astara,AZ,2021-04-19 05:13:35,38.5,48.6667,64.4,68,75,8.05
514,Cacule,BR,2021-04-19 05:13:36,-14.5033,-42.2222,64.58,97,49,2.26
515,San Jose,US,2021-04-19 05:11:41,37.3394,-121.895,62.01,72,1,3.44
516,Ust-Barguzin,RU,2021-04-19 05:13:36,53.45,108.9833,37.63,52,85,4.83
517,Luau,AO,2021-04-19 05:13:37,-10.7073,22.2247,64.18,83,99,3.36
518,Balikpapan,ID,2021-04-19 05:11:02,-1.2675,116.8289,82.51,69,100,7.58
519,Saint-Etienne-Du-Rouvray,FR,2021-04-19 05:13:37,49.3779,1.1047,37.4,93,6,4.61
520,Novovarshavka,RU,2021-04-19 05:13:38,54.1721,74.6946,24.93,35,9,13.51
521,Aras,ES,2021-04-19 05:13:38,42.5617,-2.356,45.0,87,0,3.74
522,Empalme,MX,2021-04-19 05:13:39,27.9667,-110.8167,73.99,24,0,3.0
523,Longonjo,AO,2021-04-19 05:13:39,-12.9067,15.2533,61.21,90,94,3.56
524,Makurdi,NG,2021-04-19 05:13:40,7.7411,8.5121,78.48,72,94,6.15
525,Schuttorf,DE,2021-04-19 05:13:40,52.3167,7.2333,48.0,85,100,5.37
526,Ancud,CL,2021-04-19 05:13:40,-41.8697,-73.8203,57.2,100,90,17.27
527,Markova,UA,2021-04-19 05:13:41,48.6758,24.4138,42.8,81,75,1.66
528,Vila Velha,BR,2021-04-19 05:11:47,-20.3297,-40.2925,75.2,83,0,3.44
529,Hay River,CA,2021-04-19 05:13:42,60.8156,-115.7999,37.4,74,20,2.98
530,Bodden Town,KY,2021-04-19 05:13:42,19.2833,-81.25,81.0,1,5,5.99
531,Te Anau,NZ,2021-04-19 05:13:43,-45.4167,167.7167,54.63,80,88,7.58
532,Puerto Cabezas,NI,2021-04-19 05:13:43,14.0351,-83.3888,78.76,88,88,7.49
533,Taree,AU,2021-04-19 05:09:01,-31.9,152.4667,72.0,40,0,4.61
534,Takoradi,GH,2021-04-19 05:13:44,4.8845,-1.7554,77.05,86,100,7.31
535,Sawtell,AU,2021-04-19 05:13:45,-30.3833,153.1,71.6,49,0,8.05
536,Nishihara,JP,2021-04-19 05:13:45,26.1842,127.7558,75.2,53,75,13.8
537,Wanning,CN,2021-04-19 05:13:45,18.8003,110.3967,81.27,76,61,10.45
538,Padre Bernardo,BR,2021-04-19 05:13:46,-15.35,-48.5,64.67,89,27,1.45
539,Suntar,RU,2021-04-19 05:13:46,62.1444,117.6319,24.84,58,100,6.2
540,Marrakesh,MA,2021-04-19 05:12:29,31.6315,-8.0083,57.2,82,0,3.44
541,Cururupu,BR,2021-04-19 05:13:47,-1.8283,-44.8683,74.08,97,100,2.53
542,Moctezuma,MX,2021-04-19 05:13:47,29.8,-109.6667,63.75,18,0,4.9
543,Mildura,AU,2021-04-19 05:13:48,-34.2,142.15,73.0,32,75,8.05
544,Buzmeyin,TM,2021-04-19 05:12:22,38.0507,58.2056,77.0,29,75,11.5
545,Ahipara,NZ,2021-04-19 05:13:48,-35.1667,173.1667,63.16,60,95,7.85
546,Luebo,CD,2021-04-19 05:10:02,-5.35,21.4167,70.32,95,100,0.56
547,Faribault,US,2021-04-19 05:13:49,44.295,-93.2688,41.0,75,90,20.71
548,Zabol,AF,2021-04-19 05:13:49,32.25,67.25,65.57,14,100,10.63
549,Praia Da Vitoria,PT,2021-04-19 05:13:50,38.7333,-27.0667,60.01,88,20,4.61
550,San Pedro Del Parana,PY,2021-04-19 05:13:50,-26.8333,-56.2,69.8,73,0,6.91
551,Siloam Springs,US,2021-04-19 05:10:26,36.1881,-94.5405,42.8,81,1,3.44
552,Pervomayskoye,RU,2021-04-19 05:13:51,43.919,46.7102,60.39,54,100,4.03
553,Nanning,CN,2021-04-19 05:13:51,22.8167,108.3167,69.8,94,90,4.47
554,Macae,BR,2021-04-19 05:13:52,-22.3708,-41.7869,71.6,100,90,1.14
555,Maraa,BR,2021-04-19 05:13:52,-1.8333,-65.3667,72.52,99,100,0.85
556,Staropavlovskaya,RU,2021-04-19 05:13:53,43.8489,43.6328,57.2,72,90,4.47
557,Jiangyou,CN,2021-04-19 05:13:54,31.7667,104.7167,58.17,87,100,1.1
558,Kannur,IN,2021-04-19 05:09:07,11.8675,75.3576,85.35,64,93,2.55
559,Veraval,IN,2021-04-19 05:13:55,20.9,70.3667,88.41,52,1,13.06
560,Biu,NG,2021-04-19 05:13:56,10.6129,12.1946,77.11,55,82,7.94
561,Maceio,BR,2021-04-19 05:13:56,-9.6658,-35.7353,71.6,100,0,2.3
562,Tchollire,CM,2021-04-19 05:13:57,8.4022,14.1698,79.29,52,92,3.85
563,Wick,GB,2021-04-19 05:13:57,58.4333,-3.0833,44.6,87,100,5.75
564,Ambilobe,MG,2021-04-19 05:13:51,-13.2,49.05,79.63,73,10,3.36
565,Yahualica,MX,2021-04-19 05:13:58,21.1333,-102.85,64.89,16,3,5.39
566,Kwinana,AU,2021-04-19 05:13:59,-32.25,115.7667,73.0,56,40,11.5
567,Sokyryany,UA,2021-04-19 05:13:59,48.4475,27.4168,46.54,76,100,4.59
568,Tete,MZ,2021-04-19 05:13:59,-16.1564,33.5867,69.8,78,75,4.61
569,Awjilah,LY,2021-04-19 05:14:00,29.1081,21.2869,71.11,45,97,23.53
570,Kiama,AU,2021-04-19 05:13:59,-34.6833,150.8667,75.0,52,6,4.0
571,At-Bashi,KG,2021-04-19 05:14:01,41.1702,75.8106,45.77,54,85,1.86
572,Baykit,RU,2021-04-19 05:14:01,61.67,96.37,30.54,91,100,8.9
573,Yar-Sale,RU,2021-04-19 05:12:13,66.8333,70.8333,8.42,92,88,8.79
574,Saint-Leu,RE,2021-04-19 05:14:02,-21.15,55.2833,77.0,83,75,16.11
575,San Policarpo,PH,2021-04-19 05:14:02,12.1791,125.5072,75.11,90,100,28.39
576,Nago,JP,2021-04-19 05:14:02,26.5881,127.9761,75.2,50,20,16.11
577,Hasaki,JP,2021-04-19 05:14:03,35.7333,140.8333,72.0,24,20,13.8
578,Vung Tau,VN,2021-04-19 05:14:03,10.346,107.0843,83.98,67,44,9.84
