City_ID,City,Lat,Lng,Max Temp,Humidity,Cloudiness,Wind Speed,Country,Date,Description
0,Bourail,-21.5667,165.4833,75.13,81,89,5.35,NC,2021-04-21 05:35:21,overcast clouds
1,Mataura,-46.1927,168.8643,48.0,95,93,8.99,NZ,2021-04-21 05:35:22,overcast clouds
2,Albany,42.6001,-73.9662,43.0,71,96,4.99,US,2021-04-21 05:35:22,overcast clouds
3,Bafut,6.0833,10.1,67.19,79,100,2.68,CM,2021-04-21 05:35:23,overcast clouds
4,Upernavik,72.7868,-56.1549,4.89,86,99,7.65,GL,2021-04-21 05:35:23,overcast clouds
5,Hithadhoo,-0.6,73.0833,82.67,64,5,3.89,MV,2021-04-21 05:35:24,clear sky
6,Ushuaia,-54.8,-68.3,44.6,61,20,5.75,AR,2021-04-21 05:31:59,few clouds
7,Leningradskiy,69.3833,178.4167,32.22,72,48,7.29,RU,2021-04-21 05:35:25,scattered clouds
8,Avera,33.194,-82.5271,57.2,56,1,4.61,US,2021-04-21 05:35:25,clear sky
9,Victoria,22.2855,114.1577,82.4,54,20,9.22,HK,2021-04-21 05:33:37,few clouds
10,Isiro,2.7739,27.616,66.94,99,100,4.09,CD,2021-04-21 05:35:26,overcast clouds
11,Rikitea,-23.1203,-134.9692,76.77,75,30,4.32,PF,2021-04-21 05:35:26,light rain
12,Port Elizabeth,-33.918,25.5701,59.0,94,89,2.3,ZA,2021-04-21 05:35:27,light rain
13,Fortuna,40.5982,-124.1573,50.0,100,90,5.75,US,2021-04-21 05:35:28,overcast clouds
14,Caravelas,-17.7125,-39.2481,72.52,90,93,2.44,BR,2021-04-21 05:35:28,overcast clouds
15,Mayor Pablo Lagerenza,-19.9309,-60.7718,74.44,73,56,4.97,PY,2021-04-21 05:35:29,broken clouds
16,Bethel,41.3712,-73.414,53.01,76,1,4.59,US,2021-04-21 05:35:29,clear sky
17,Punta Arenas,-53.15,-70.9167,35.6,75,0,9.22,CL,2021-04-21 05:35:30,clear sky
18,Tolyatti,53.5303,49.3461,42.8,31,0,26.84,RU,2021-04-21 05:35:30,light rain
19,Mikuni,36.2171,136.1519,60.8,51,20,9.22,JP,2021-04-21 05:35:31,few clouds
20,Iqaluit,63.7506,-68.5145,23.0,80,90,31.07,CA,2021-04-21 05:35:31,light snow
21,Kapaa,22.0752,-159.319,73.4,88,1,5.75,US,2021-04-21 05:35:32,clear sky
22,Kihei,20.785,-156.4656,77.0,78,20,3.44,US,2021-04-21 05:35:32,light rain
23,Havre-Saint-Pierre,50.2334,-63.5986,33.8,100,90,8.05,CA,2021-04-21 05:35:33,snow
24,Busselton,-33.65,115.3333,71.01,62,0,3.0,AU,2021-04-21 05:35:33,clear sky
25,Westport,41.1415,-73.3579,55.4,62,1,9.22,US,2021-04-21 05:31:22,clear sky
26,Meulaboh,4.1363,96.1285,85.28,67,66,6.93,ID,2021-04-21 05:35:34,broken clouds
27,Cherskiy,68.75,161.3,36.25,76,44,24.0,RU,2021-04-21 05:35:35,scattered clouds
28,Nuevo Progreso,23.1667,-97.95,69.01,90,80,1.99,MX,2021-04-21 05:35:35,broken clouds
29,Bredasdorp,-34.5322,20.0403,57.2,94,100,2.3,ZA,2021-04-21 05:35:36,overcast clouds
30,Coahuayana,18.7333,-103.6833,67.23,71,32,4.05,MX,2021-04-21 05:35:36,scattered clouds
31,Lebu,-37.6167,-73.65,54.37,94,96,5.91,CL,2021-04-21 05:35:37,overcast clouds
32,Borovoy,55.4333,86.0833,30.2,43,40,11.18,RU,2021-04-21 05:35:37,scattered clouds
33,Lagoa,39.05,-27.9833,61.32,88,100,17.76,PT,2021-04-21 05:35:38,overcast clouds
34,Magna,40.7091,-112.1016,50.0,49,1,6.91,US,2021-04-21 05:35:38,clear sky
35,Vaini,-21.2,-175.2,80.6,83,75,4.61,TO,2021-04-21 05:35:39,broken clouds
36,Klaksvik,62.2266,-6.589,33.8,86,75,1.14,FO,2021-04-21 05:35:39,broken clouds
37,Rogers,36.3668,-95.5836,34.0,86,1,2.1,US,2021-04-21 05:35:41,clear sky
38,Sulangan,11.1373,123.7228,84.52,72,100,9.22,PH,2021-04-21 05:35:41,overcast clouds
39,Chokurdakh,70.6333,147.9167,27.21,90,100,4.43,RU,2021-04-21 05:35:42,overcast clouds
40,High Level,58.5169,-117.136,41.0,65,1,5.5,CA,2021-04-21 05:35:42,clear sky
41,Hermanus,-34.4187,19.2345,60.01,92,100,5.99,ZA,2021-04-21 05:35:43,overcast clouds
42,Cape Town,-33.9258,18.4232,55.4,94,0,2.3,ZA,2021-04-21 05:34:12,clear sky
43,Port Alfred,-33.5906,26.891,68.34,76,68,8.48,ZA,2021-04-21 05:35:44,broken clouds
44,Lompoc,34.6391,-120.4579,51.8,76,93,10.36,US,2021-04-21 05:35:44,overcast clouds
45,Bairiki,1.3292,172.9752,84.2,79,40,13.8,KI,2021-04-21 05:35:45,light rain
46,Porto Walter,-8.2686,-72.7439,71.04,99,98,2.46,BR,2021-04-21 05:35:45,overcast clouds
47,Butaritari,3.0707,172.7902,81.68,79,48,19.46,KI,2021-04-21 05:35:46,scattered clouds
48,Atuona,-9.8,-139.0333,80.22,78,26,20.94,PF,2021-04-21 05:35:46,light rain
49,Guerrero Negro,27.9769,-114.0611,58.68,85,19,13.65,MX,2021-04-21 05:35:47,few clouds
50,Morganton,35.7454,-81.6848,54.0,82,1,2.77,US,2021-04-21 05:35:47,clear sky
51,Georgetown,5.4112,100.3354,89.6,66,20,8.05,MY,2021-04-21 05:35:48,few clouds
52,Paita,-5.0892,-81.1144,70.39,77,54,13.4,PE,2021-04-21 05:35:48,broken clouds
53,Rio Rancho,35.2334,-106.6645,48.99,37,99,1.99,US,2021-04-21 05:35:49,overcast clouds
54,Tiksi,71.6872,128.8694,16.21,91,100,12.91,RU,2021-04-21 05:35:50,light snow
55,Patacamaya,-17.2333,-67.9167,43.95,78,6,5.77,BO,2021-04-21 05:35:50,clear sky
56,Hornepayne,49.2138,-84.7705,15.37,96,100,2.01,CA,2021-04-21 05:35:51,overcast clouds
57,Moscow,55.7522,37.6156,37.0,93,75,4.47,RU,2021-04-21 05:33:46,snow
58,Faanui,-16.4833,-151.75,81.97,73,92,11.88,PF,2021-04-21 05:35:51,overcast clouds
59,Tuktoyaktuk,69.4541,-133.0374,14.0,79,90,19.57,CA,2021-04-21 05:35:52,snow
60,Ribeira Grande,38.5167,-28.7,62.24,91,100,13.69,PT,2021-04-21 05:35:52,overcast clouds
61,Castro,-24.7911,-50.0119,52.99,96,45,6.26,BR,2021-04-21 05:35:53,scattered clouds
62,Puerto Ayora,-0.7393,-90.3518,75.0,98,96,1.99,EC,2021-04-21 05:35:53,overcast clouds
63,Kruisfontein,-34.0033,24.7314,63.59,75,100,1.9,ZA,2021-04-21 05:35:54,overcast clouds
64,Soddy-Daisy,35.2359,-85.1908,53.01,55,7,5.75,US,2021-04-21 05:35:54,clear sky
65,Hudiksvall,61.729,17.1036,45.3,56,69,4.85,SE,2021-04-21 05:35:55,broken clouds
66,Nuristan,35.3,70.8333,34.52,65,13,6.98,AF,2021-04-21 05:35:55,few clouds
67,Tambopata,-12.7333,-69.1833,72.88,95,87,0.89,PE,2021-04-21 05:35:56,light rain
68,Coquimbo,-29.9533,-71.3436,59.0,72,75,4.61,CL,2021-04-21 05:35:56,broken clouds
69,Sur,22.5667,59.5289,91.04,33,0,7.14,OM,2021-04-21 05:35:57,clear sky
70,Avarua,-21.2078,-159.775,75.2,83,90,8.05,CK,2021-04-21 05:35:58,light rain
71,Grindavik,63.8424,-22.4338,39.2,87,75,6.91,IS,2021-04-21 05:35:59,broken clouds
72,Brigantine,39.4101,-74.3646,55.4,62,1,11.5,US,2021-04-21 05:35:59,clear sky
73,Mount Gambier,-37.8333,140.7667,51.8,87,75,11.5,AU,2021-04-21 05:35:59,broken clouds
74,San Policarpo,12.1791,125.5072,87.21,64,96,8.57,PH,2021-04-21 05:36:00,overcast clouds
75,Shakawe,-18.3667,21.85,60.31,41,0,5.79,BW,2021-04-21 05:36:00,clear sky
76,Oktyabrskiy,54.4815,53.471,45.48,32,97,16.73,RU,2021-04-21 05:36:01,overcast clouds
77,Fare,-16.7,-151.0167,81.99,74,95,14.34,PF,2021-04-21 05:36:02,overcast clouds
78,New Norfolk,-42.7826,147.0587,55.99,58,50,7.0,AU,2021-04-21 05:36:02,scattered clouds
79,Airai,-8.9266,125.4092,69.98,70,96,2.01,TL,2021-04-21 05:36:03,overcast clouds
80,Lewiston,44.1003,-70.2148,44.01,81,90,3.44,US,2021-04-21 05:36:03,overcast clouds
81,Cidreira,-30.1811,-50.2056,69.98,76,53,15.7,BR,2021-04-21 05:36:03,broken clouds
82,Saint-Philippe,-21.3585,55.7679,80.6,78,90,13.8,RE,2021-04-21 05:36:04,light rain
83,Port Augusta,-32.5,137.7667,66.99,48,90,5.75,AU,2021-04-21 05:36:04,overcast clouds
84,Hanmer Springs,-42.5167,172.8167,52.07,71,55,2.28,NZ,2021-04-21 05:36:05,broken clouds
85,Jamestown,42.097,-79.2353,34.0,93,90,6.91,US,2021-04-21 05:36:05,light snow
86,Bluff,-46.6,168.3333,48.0,95,100,8.99,NZ,2021-04-21 05:36:06,overcast clouds
87,Katsuura,35.1333,140.3,75.0,49,20,13.8,JP,2021-04-21 05:36:06,few clouds
88,Novyy Urengoy,66.0833,76.6333,19.53,88,91,10.18,RU,2021-04-21 05:36:07,overcast clouds
89,Tasiilaq,65.6145,-37.6368,21.2,73,75,1.14,GL,2021-04-21 05:36:07,broken clouds
90,Yellowknife,62.456,-114.3525,39.2,60,20,10.36,CA,2021-04-21 05:36:08,few clouds
91,San Patricio,28.017,-97.5169,64.0,94,20,11.5,US,2021-04-21 05:36:08,few clouds
92,Ocean City,39.2776,-74.5746,55.4,62,1,11.5,US,2021-04-21 05:35:19,clear sky
93,Buala,-8.145,159.5921,84.49,73,41,3.83,SB,2021-04-21 05:36:09,light rain
94,Sosua,19.7667,-70.5167,73.99,94,20,7.16,DO,2021-04-21 05:36:10,few clouds
95,Los Llanos De Aridane,28.6585,-17.9182,66.2,68,90,9.22,ES,2021-04-21 05:36:10,overcast clouds
96,Mao,39.8885,4.2658,53.6,94,20,8.05,ES,2021-04-21 05:36:11,few clouds
97,Hami,42.8,93.45,78.46,12,60,3.62,CN,2021-04-21 05:36:11,broken clouds
98,La Ronge,55.1001,-105.2842,39.2,41,55,3.44,CA,2021-04-21 05:36:12,broken clouds
99,Khatanga,71.9667,102.5,10.74,86,100,7.92,RU,2021-04-21 05:36:12,overcast clouds
100,Ruteng,-8.6136,120.4721,70.39,67,30,0.49,ID,2021-04-21 05:36:13,scattered clouds
101,Kangaatsiaq,68.3065,-53.4641,13.87,82,12,11.01,GL,2021-04-21 05:36:14,few clouds
102,Galbshtadt,53.2264,78.9845,35.33,66,97,14.47,RU,2021-04-21 05:36:14,overcast clouds
103,Vallenar,-28.5708,-70.7581,54.68,79,0,2.48,CL,2021-04-21 05:36:15,clear sky
104,Brae,60.3964,-1.353,39.2,60,20,12.66,GB,2021-04-21 05:33:48,few clouds
105,Saldanha,-33.0117,17.9442,55.4,82,100,1.03,ZA,2021-04-21 05:36:15,overcast clouds
106,Nueve De Julio,-35.4444,-60.8831,61.0,92,2,4.0,AR,2021-04-21 05:36:16,clear sky
107,Menongue,-14.6585,17.691,60.04,68,2,4.85,AO,2021-04-21 05:36:16,clear sky
108,Surt,31.2089,16.5887,60.71,58,2,15.28,LY,2021-04-21 05:36:17,clear sky
109,Ahipara,-35.1667,173.1667,63.14,86,29,12.57,NZ,2021-04-21 05:36:17,scattered clouds
110,Narsaq,60.9167,-46.05,46.4,34,75,19.57,GL,2021-04-21 05:36:18,broken clouds
111,Baruun-Urt,46.6806,113.2792,75.2,11,100,21.43,MN,2021-04-21 05:36:18,overcast clouds
112,Flin Flon,54.7682,-101.865,27.3,81,75,5.39,CA,2021-04-21 05:36:19,broken clouds
113,Kavieng,-2.5744,150.7967,83.32,74,94,12.24,PG,2021-04-21 05:36:19,light rain
114,Masunga,-20.6246,27.4488,46.4,93,20,1.14,BW,2021-04-21 05:36:20,few clouds
115,Ilulissat,69.2167,-51.1,12.2,57,11,2.3,GL,2021-04-21 05:36:20,few clouds
116,Acacoyagua,15.35,-92.65,76.64,74,93,2.21,MX,2021-04-21 05:36:21,overcast clouds
117,Qaanaaq,77.484,-69.3632,1.04,74,100,10.13,GL,2021-04-21 05:36:21,overcast clouds
118,Clyde River,70.4692,-68.5914,-4.0,84,90,4.61,CA,2021-04-21 05:36:22,overcast clouds
119,Camacupa,-12.0167,17.4833,59.76,77,17,3.38,AO,2021-04-21 05:36:22,few clouds
120,Hilo,19.7297,-155.09,75.2,69,75,4.61,US,2021-04-21 05:31:49,broken clouds
121,Marzuq,14.4,46.4667,82.33,21,18,2.86,YE,2021-04-21 05:36:23,few clouds
122,Kokopo,-4.352,152.2633,82.67,79,96,6.06,PG,2021-04-21 05:36:24,moderate rain
123,Deder,9.3167,41.45,67.48,49,83,5.48,ET,2021-04-21 05:36:24,broken clouds
124,Hauterive,46.0901,3.4459,48.2,93,75,3.44,FR,2021-04-21 05:36:25,broken clouds
125,Koidu,8.4167,-10.8333,74.07,98,100,1.36,SL,2021-04-21 05:36:25,overcast clouds
126,Tooele,40.5308,-112.2983,45.0,65,40,4.61,US,2021-04-21 05:36:26,scattered clouds
127,Sarkand,45.41,79.9186,35.06,87,100,8.55,KZ,2021-04-21 05:36:26,light snow
128,Isangel,-19.55,169.2667,84.2,79,75,5.75,VU,2021-04-21 05:36:27,broken clouds
129,Port-Gentil,-0.7193,8.7815,78.8,100,40,2.3,GA,2021-04-21 05:36:27,light rain
130,Vysokogornyy,50.1167,139.15,36.84,88,48,5.53,RU,2021-04-21 05:36:28,scattered clouds
131,Raga,8.4596,25.678,80.91,57,100,9.82,SS,2021-04-21 05:36:28,overcast clouds
132,Lata,40.1629,-8.3327,57.0,93,100,0.89,PT,2021-04-21 05:36:29,overcast clouds
133,Mizan Teferi,6.9833,35.5833,70.63,64,100,1.99,ET,2021-04-21 05:36:29,overcast clouds
134,Kodiak,57.79,-152.4072,42.8,81,90,9.22,US,2021-04-21 05:33:15,overcast clouds
135,Arraial Do Cabo,-22.9661,-42.0278,73.29,82,54,30.2,BR,2021-04-21 05:33:29,broken clouds
136,Porto Novo,6.4965,2.6036,82.4,83,40,9.22,BJ,2021-04-21 05:36:30,scattered clouds
137,Dikson,73.5069,80.5464,18.81,92,100,21.5,RU,2021-04-21 05:36:31,overcast clouds
138,Tateyama,34.9833,139.8667,71.01,52,20,5.75,JP,2021-04-21 05:36:31,few clouds
139,Bambous Virieux,-20.3428,57.7575,82.4,78,75,11.5,MU,2021-04-21 05:36:32,light rain
140,Nikolskoye,59.7035,30.7861,42.01,65,0,2.24,RU,2021-04-21 05:36:32,clear sky
141,Volsk,52.0333,47.3833,43.18,74,100,20.4,RU,2021-04-21 05:36:32,overcast clouds
142,Torbay,47.6666,-52.7314,36.0,100,90,13.8,CA,2021-04-21 05:36:33,light intensity drizzle
143,East London,-33.0153,27.9116,57.2,100,20,2.3,ZA,2021-04-21 05:35:01,few clouds
144,Pevek,69.7008,170.3133,31.06,71,3,19.35,RU,2021-04-21 05:36:34,clear sky
145,Boden,65.8252,21.6886,37.4,81,0,8.05,SE,2021-04-21 05:36:35,clear sky
146,Talnakh,69.4865,88.3972,8.78,81,100,2.86,RU,2021-04-21 05:36:36,overcast clouds
147,Hay River,60.8156,-115.7999,35.6,69,93,1.14,CA,2021-04-21 05:36:37,overcast clouds
148,Hobart,-42.8794,147.3294,57.2,38,0,19.57,AU,2021-04-21 05:31:52,clear sky
149,Broken Hill,-31.95,141.4333,64.4,29,0,5.75,AU,2021-04-21 05:36:38,clear sky
150,Mar Del Plata,-38.0023,-57.5575,68.0,77,0,13.8,AR,2021-04-21 05:34:31,clear sky
151,Tulun,54.5611,100.5792,33.3,28,58,10.22,RU,2021-04-21 05:36:39,broken clouds
152,Itarema,-2.9248,-39.9167,75.18,88,81,1.03,BR,2021-04-21 05:36:39,broken clouds
153,Orillia,44.6087,-79.4207,32.0,69,100,8.05,CA,2021-04-21 05:33:17,overcast clouds
154,Taldan,53.6667,124.8,56.3,36,79,7.67,RU,2021-04-21 05:36:40,broken clouds
155,Soyo,-6.1349,12.3689,78.84,85,97,4.14,AO,2021-04-21 05:36:41,overcast clouds
156,Mozhga,56.4447,52.2276,45.28,36,100,15.39,RU,2021-04-21 05:35:19,overcast clouds
157,Hofn,64.2539,-15.2082,39.22,43,53,4.07,IS,2021-04-21 05:36:42,broken clouds
158,Waddan,29.1614,16.139,62.6,34,100,16.69,LY,2021-04-21 05:36:43,overcast clouds
159,Sao Filipe,14.8961,-24.4956,71.87,73,99,12.17,CV,2021-04-21 05:36:43,overcast clouds
160,Constitucion,-35.3333,-72.4167,57.92,85,71,14.23,CL,2021-04-21 05:36:44,broken clouds
161,Aksarka,66.5606,67.7975,30.87,99,89,10.25,RU,2021-04-21 05:36:44,overcast clouds
162,Berlevag,70.8578,29.0864,41.0,60,0,26.46,NO,2021-04-21 05:36:45,clear sky
163,Kaputa,-8.4689,29.6619,69.31,83,99,6.73,ZM,2021-04-21 05:36:45,overcast clouds
164,Half Moon Bay,37.4636,-122.4286,53.01,87,90,10.36,US,2021-04-21 05:36:46,mist
165,Balkhash,46.844,74.9804,28.4,54,0,22.37,KZ,2021-04-21 05:36:47,clear sky
166,Yulara,-25.2406,130.9889,80.6,16,18,8.05,AU,2021-04-21 05:36:47,few clouds
167,Ponta Do Sol,32.6667,-17.1,57.0,69,57,5.01,PT,2021-04-21 05:36:48,broken clouds
168,San Cristobal,7.7669,-72.225,69.24,64,51,1.72,VE,2021-04-21 05:36:48,broken clouds
169,Barrow,71.2906,-156.7887,17.6,79,75,6.91,US,2021-04-21 05:36:49,broken clouds
170,Yar-Sale,66.8333,70.8333,26.56,90,92,11.65,RU,2021-04-21 05:36:50,overcast clouds
171,Zhigansk,66.7697,123.3711,17.22,72,96,4.63,RU,2021-04-21 05:36:50,overcast clouds
172,Lorengau,-2.0226,147.2712,83.59,77,100,10.76,PG,2021-04-21 05:36:50,moderate rain
173,Aitape,-3.1374,142.3475,85.12,66,95,7.29,PG,2021-04-21 05:36:51,overcast clouds
174,Kismayo,-0.3582,42.5454,84.18,73,99,15.01,SO,2021-04-21 05:36:51,light rain
175,Porto De Moz,-1.7483,-52.2383,70.93,97,83,2.95,BR,2021-04-21 05:36:52,broken clouds
176,Nizhneangarsk,55.7833,109.55,29.34,51,93,9.64,RU,2021-04-21 05:36:53,overcast clouds
177,Fuyang,32.9,115.8167,59.43,91,100,3.91,CN,2021-04-21 05:36:53,overcast clouds
178,Augusto Correa,-1.0217,-46.635,72.37,97,97,0.51,BR,2021-04-21 05:36:54,overcast clouds
179,Bandundu,-3.3167,17.3667,73.24,92,100,3.27,CD,2021-04-21 05:36:54,overcast clouds
180,Smithers,54.7804,-127.1743,51.8,43,1,5.75,CA,2021-04-21 05:33:44,clear sky
181,Ilula,-7.6766,36.0366,64.4,88,75,4.76,TZ,2021-04-21 05:36:56,broken clouds
182,Codrington,-38.2667,141.9667,55.49,53,100,12.84,AU,2021-04-21 05:36:56,overcast clouds
183,Naze,28.3667,129.4833,75.2,57,40,14.97,JP,2021-04-21 05:36:57,scattered clouds
184,Vila Velha,-20.3297,-40.2925,75.99,94,20,5.32,BR,2021-04-21 05:36:57,few clouds
185,Thompson,55.7435,-97.8558,24.8,93,1,5.28,CA,2021-04-21 05:36:58,clear sky
186,Pisco,-13.7,-76.2167,66.2,82,1,1.14,PE,2021-04-21 05:36:58,mist
187,Merauke,-8.4667,140.3333,85.89,65,100,6.35,ID,2021-04-21 05:36:59,overcast clouds
188,Palana,59.1167,159.9667,31.48,92,100,5.53,RU,2021-04-21 05:36:59,overcast clouds
189,Mizdah,31.4451,12.9801,57.96,42,7,7.83,LY,2021-04-21 05:37:00,clear sky
190,Saint Anthony,45.0205,-93.218,32.0,55,1,3.44,US,2021-04-21 05:37:00,clear sky
191,Issaquah,47.5301,-122.0326,57.2,51,1,4.61,US,2021-04-21 05:34:24,clear sky
192,Souillac,-20.5167,57.5167,82.4,78,75,11.5,MU,2021-04-21 05:37:01,light rain
193,Alofi,-19.0595,-169.9187,80.6,89,25,8.05,NU,2021-04-21 05:37:01,light rain
194,Tigil,57.8,158.6667,36.95,74,100,17.6,RU,2021-04-21 05:37:02,overcast clouds
195,Vanimo,-2.6741,141.3028,82.62,75,98,6.91,PG,2021-04-21 05:37:02,overcast clouds
196,Poum,-20.2333,164.0167,78.69,78,35,7.05,NC,2021-04-21 05:37:03,scattered clouds
197,San Jeronimo,-11.9472,-75.2829,48.43,88,100,0.87,PE,2021-04-21 05:37:03,overcast clouds
198,Loncoche,-39.3667,-72.6333,51.8,100,90,2.3,CL,2021-04-21 05:37:04,moderate rain
199,Marawi,7.9986,124.2928,84.0,78,94,8.01,PH,2021-04-21 05:37:04,overcast clouds
200,Turayf,31.6725,38.6637,75.2,41,0,11.5,SA,2021-04-21 05:37:05,clear sky
201,Buluang,13.3068,123.3425,85.05,72,94,9.62,PH,2021-04-21 05:37:05,overcast clouds
202,Vaitape,-16.5167,-151.75,82.0,73,92,11.79,PF,2021-04-21 05:37:06,overcast clouds
203,Marovoay,-16.1,46.6333,80.6,65,40,9.22,MG,2021-04-21 05:37:06,scattered clouds
204,Dawson Creek,55.7666,-120.2362,51.8,32,1,5.75,CA,2021-04-21 05:37:07,clear sky
205,Otjimbingwe,-22.35,16.1333,66.81,33,9,8.1,NA,2021-04-21 05:37:08,clear sky
206,Ancud,-41.8697,-73.8203,46.99,100,90,8.9,CL,2021-04-21 05:37:08,fog
207,Olafsvik,64.8945,-23.7142,40.06,86,100,10.96,IS,2021-04-21 05:37:09,overcast clouds
208,Kahta,37.7855,38.6237,66.2,55,40,3.44,TR,2021-04-21 05:37:09,scattered clouds
209,Norman Wells,65.282,-126.8329,23.0,93,90,20.71,CA,2021-04-21 05:37:09,light snow
210,Caohai,26.8661,104.2841,71.22,30,34,5.93,CN,2021-04-21 05:37:10,scattered clouds
211,Port Hardy,50.6996,-127.4199,48.2,93,20,3.44,CA,2021-04-21 05:37:11,few clouds
212,Saint George,37.1041,-113.5841,69.8,14,1,11.5,US,2021-04-21 05:36:59,clear sky
213,Carnarvon,-24.8667,113.6333,84.2,51,30,9.22,AU,2021-04-21 05:37:11,scattered clouds
214,Nchelenge,-9.3451,28.734,68.7,83,100,3.27,ZM,2021-04-21 05:37:12,overcast clouds
215,Kaitangata,-46.2817,169.8464,55.0,86,68,8.01,NZ,2021-04-21 05:37:12,broken clouds
216,Kununurra,-15.7667,128.7333,95.0,24,75,8.05,AU,2021-04-21 05:37:13,broken clouds
217,Tuy Hoa,13.0833,109.3,86.65,67,79,9.57,VN,2021-04-21 05:37:13,broken clouds
218,Ndele,8.4109,20.6473,77.95,68,100,8.43,CF,2021-04-21 05:37:14,overcast clouds
219,Aksha,50.2814,113.2867,75.0,14,0,11.68,RU,2021-04-21 05:37:15,clear sky
220,Ceres,37.5949,-120.9577,55.4,62,1,5.75,US,2021-04-21 05:36:45,clear sky
221,Bethanien,-26.502,17.1583,67.55,26,14,7.74,NA,2021-04-21 05:37:15,few clouds
222,Polunochnoye,60.8697,60.4153,50.04,47,4,1.81,RU,2021-04-21 05:37:16,clear sky
223,Hearst,49.6835,-83.6665,3.2,85,100,3.44,CA,2021-04-21 05:37:16,overcast clouds
224,Sitka,57.0531,-135.33,44.6,76,90,13.8,US,2021-04-21 05:37:17,overcast clouds
225,Butembo,0.15,29.2833,63.59,81,100,1.14,CD,2021-04-21 05:37:17,overcast clouds
226,Tiarei,-17.5333,-149.3333,78.8,78,75,8.05,PF,2021-04-21 05:37:18,broken clouds
227,Maldonado,-34.6667,-54.9167,64.4,94,40,9.22,UY,2021-04-21 05:37:18,scattered clouds
228,Nova Soure,-11.2333,-38.4833,72.68,94,88,2.95,BR,2021-04-21 05:37:19,moderate rain
229,Lamu,-2.2717,40.902,81.84,77,86,15.55,KE,2021-04-21 05:37:19,light rain
230,Severo-Kurilsk,50.6789,156.125,34.86,94,100,22.68,RU,2021-04-21 05:37:20,overcast clouds
231,El Dorado,38.7666,-120.5177,48.99,80,4,5.57,US,2021-04-21 05:35:09,clear sky
232,Easley,34.8298,-82.6015,57.99,100,40,2.8,US,2021-04-21 05:37:21,scattered clouds
233,Yenagoa,4.9247,6.2642,77.9,86,61,2.8,NG,2021-04-21 05:37:21,broken clouds
234,Fuzhou,26.0614,119.3061,77.0,61,20,22.37,CN,2021-04-21 05:37:22,few clouds
235,Fukue,32.6881,128.8419,71.6,49,75,8.05,JP,2021-04-21 05:37:22,broken clouds
236,Cockburn Town,21.4612,-71.1419,77.88,79,54,21.52,TC,2021-04-21 05:36:28,broken clouds
237,Lasa,46.6166,10.7002,44.01,80,0,4.61,IT,2021-04-21 05:37:23,clear sky
238,Shitkino,56.3703,98.3543,29.71,59,100,10.54,RU,2021-04-21 05:37:24,overcast clouds
239,Vila Franca Do Campo,37.7167,-25.4333,60.8,94,75,10.36,PT,2021-04-21 05:37:25,broken clouds
240,Algiers,36.7525,3.042,51.8,82,0,3.44,DZ,2021-04-21 05:34:14,clear sky
241,Srednekolymsk,67.45,153.6833,36.32,95,14,11.14,RU,2021-04-21 05:37:27,few clouds
242,Beringovskiy,63.05,179.3167,25.02,86,67,1.92,RU,2021-04-21 05:37:27,broken clouds
243,Mawlaik,23.6333,94.4167,109.4,8,0,1.03,MM,2021-04-21 05:37:28,clear sky
244,Adrar,20.5022,-10.0711,73.11,13,14,5.61,MR,2021-04-21 05:37:28,few clouds
245,Dingle,10.9995,122.6711,91.35,49,96,15.26,PH,2021-04-21 05:37:29,moderate rain
246,Ketchikan,55.3422,-131.6461,51.8,66,1,10.36,US,2021-04-21 05:37:29,clear sky
247,Nuevo Casas Grandes,30.4167,-107.9167,62.56,15,66,5.91,MX,2021-04-21 05:37:30,broken clouds
248,Kemijarvi,66.7131,27.4306,39.38,62,35,9.8,FI,2021-04-21 05:37:30,scattered clouds
249,Abu Samrah,35.3029,37.1841,68.74,35,5,12.46,SY,2021-04-21 05:37:31,clear sky
250,Mehamn,71.0357,27.8492,41.0,60,0,26.46,NO,2021-04-21 05:37:31,clear sky
251,Chemal,51.4111,86.005,35.85,42,14,4.59,RU,2021-04-21 05:37:33,few clouds
252,Sao Bernardo,-3.3614,-42.4178,71.69,97,89,1.72,BR,2021-04-21 05:37:33,overcast clouds
253,Homa Bay,-0.5273,34.4571,68.0,88,75,3.44,KE,2021-04-21 05:37:34,broken clouds
254,Mugur-Aksy,50.35,90.5,25.99,62,100,6.11,RU,2021-04-21 05:37:34,overcast clouds
255,Gillette,44.2911,-105.5022,19.4,93,90,3.44,US,2021-04-21 05:37:35,overcast clouds
256,Dustlik,40.5247,68.0358,58.98,48,66,7.54,UZ,2021-04-21 05:37:36,broken clouds
257,Vagur,61.4732,-6.8119,41.47,61,39,15.97,FO,2021-04-21 05:37:37,scattered clouds
258,Paralimni,35.0375,33.9833,66.2,39,0,3.44,CY,2021-04-21 05:37:37,clear sky
259,Fort Frances,48.5999,-93.4003,28.4,64,90,4.61,CA,2021-04-21 05:37:38,overcast clouds
260,Ostrovnoy,68.0531,39.5131,38.77,72,4,18.07,RU,2021-04-21 05:37:38,clear sky
261,Te Anau,-45.4167,167.7167,53.46,85,87,3.98,NZ,2021-04-21 05:37:39,overcast clouds
262,Nizhnevartovsk,60.9344,76.5531,24.8,63,0,8.95,RU,2021-04-21 05:37:40,clear sky
263,Meadow Lake,34.8014,-106.5436,46.99,36,75,32.21,US,2021-04-21 05:37:40,broken clouds
264,Mitsamiouli,-11.3847,43.2844,78.8,83,40,6.91,KM,2021-04-21 05:37:41,scattered clouds
265,Japura,-0.3167,102.35,94.42,46,65,1.59,ID,2021-04-21 05:37:41,broken clouds
266,Apac,1.9756,32.5386,70.83,82,100,5.75,UG,2021-04-21 05:37:42,overcast clouds
267,Namibe,-15.1961,12.1522,80.67,75,13,4.14,AO,2021-04-21 05:35:13,few clouds
268,Magdagachi,53.45,125.8,61.68,33,65,5.5,RU,2021-04-21 05:37:44,broken clouds
269,Kamaishi,39.2667,141.8833,59.0,31,20,14.97,JP,2021-04-21 05:37:20,few clouds
270,Gizo,-8.103,156.8419,84.92,69,89,1.39,SB,2021-04-21 05:37:45,light rain
271,Bonavista,48.6499,-53.1147,35.01,100,100,8.05,CA,2021-04-21 05:37:46,overcast clouds
272,Troitsko-Pechorsk,62.7084,56.1964,45.66,64,11,4.56,RU,2021-04-21 05:37:46,few clouds
273,Khani,41.9563,42.9566,55.4,88,90,3.44,GE,2021-04-21 05:37:47,overcast clouds
274,Christchurch,-43.5333,172.6333,59.0,67,35,10.36,NZ,2021-04-21 05:37:47,scattered clouds
275,Wad Madani,14.4012,33.5199,97.21,17,7,10.38,SD,2021-04-21 05:37:47,clear sky
276,Fairbanks,64.8378,-147.7164,41.0,26,1,4.61,US,2021-04-21 05:36:46,clear sky
277,Teknaf,20.8624,92.3058,88.66,59,29,11.05,BD,2021-04-21 05:37:48,scattered clouds
278,Bredy,52.4153,60.3411,45.01,31,0,1.83,RU,2021-04-21 05:37:49,clear sky
279,Geraldton,-28.7667,114.6,86.0,21,21,14.97,AU,2021-04-21 05:37:50,few clouds
280,Port Victoria,0.0939,33.9756,71.91,78,96,10.4,KE,2021-04-21 05:37:50,overcast clouds
281,Egvekinot,66.3167,-179.1667,18.37,83,80,0.34,RU,2021-04-21 05:37:51,broken clouds
282,Salalah,17.0151,54.0924,84.2,65,0,3.44,OM,2021-04-21 05:37:51,clear sky
283,Rawson,-43.3002,-65.1023,63.05,86,100,9.95,AR,2021-04-21 05:37:52,light rain
284,Abong Mbang,3.9833,13.1833,67.59,98,100,3.13,CM,2021-04-21 05:37:52,moderate rain
285,Saint-Joseph,-21.3667,55.6167,78.8,78,90,13.8,RE,2021-04-21 05:37:53,light rain
286,Saskylakh,71.9167,114.0833,9.14,81,67,4.34,RU,2021-04-21 05:37:54,broken clouds
287,Nuuk,64.1835,-51.7216,28.4,93,20,11.5,GL,2021-04-21 05:37:54,few clouds
288,Jalu,29.0331,21.5482,63.16,41,69,11.95,LY,2021-04-21 05:37:55,broken clouds
289,Sergeyevka,53.88,67.4158,48.18,46,4,11.34,KZ,2021-04-21 05:37:55,clear sky
290,Bacolod,10.6667,122.95,86.13,64,98,19.15,PH,2021-04-21 05:37:56,moderate rain
291,Aklavik,68.2191,-135.0107,15.8,73,71,12.66,CA,2021-04-21 05:37:56,broken clouds
292,Deputatskiy,69.3,139.9,20.77,90,100,4.29,RU,2021-04-21 05:37:57,light snow
293,Sambava,-14.2667,50.1667,77.09,88,99,11.56,MG,2021-04-21 05:37:57,light rain
294,Moussoro,13.6408,16.4901,82.47,7,44,10.69,TD,2021-04-21 05:37:58,scattered clouds
295,Vardo,70.3705,31.1107,42.8,49,0,4.61,NO,2021-04-21 05:37:58,clear sky
296,Pak Phanang,8.3511,100.202,93.2,55,40,5.75,TH,2021-04-21 05:37:59,scattered clouds
297,Balakhninskiy,58.0106,114.2769,27.5,65,100,12.24,RU,2021-04-21 05:38:00,overcast clouds
298,Cap Malheureux,-19.9842,57.6142,81.0,79,100,7.0,MU,2021-04-21 05:38:00,overcast clouds
299,Rapid City,44.0805,-103.231,28.99,64,90,6.91,US,2021-04-21 05:35:33,overcast clouds
300,Saraza,8.7356,117.78,87.24,64,75,7.2,PH,2021-04-21 05:38:01,broken clouds
301,Luwuk,-0.9516,122.7875,84.02,76,58,4.05,ID,2021-04-21 05:38:01,broken clouds
302,Cabo San Lucas,22.8909,-109.9124,68.0,78,24,6.44,MX,2021-04-21 05:38:02,few clouds
303,Ukiah,39.1502,-123.2078,55.4,67,1,4.61,US,2021-04-21 05:38:02,clear sky
304,Chickasha,35.0526,-97.9364,30.2,93,1,5.75,US,2021-04-21 05:38:03,clear sky
305,Scarborough,54.2797,-0.4044,45.0,84,99,3.0,GB,2021-04-21 05:38:03,overcast clouds
306,Longyearbyen,78.2186,15.6401,23.0,68,20,10.36,SJ,2021-04-21 05:38:04,few clouds
307,Moskovskiy,55.5991,37.355,37.0,100,90,4.47,RU,2021-04-21 05:38:05,snow
308,Miri,4.4148,114.0089,87.8,55,40,8.05,MY,2021-04-21 05:38:05,scattered clouds
309,Nanortalik,60.1432,-45.2371,35.8,75,100,4.9,GL,2021-04-21 05:38:06,overcast clouds
310,Saint-Francois,46.4154,3.9054,48.2,87,0,2.3,FR,2021-04-21 05:38:06,clear sky
311,Galle,6.0367,80.217,84.34,68,100,9.51,LK,2021-04-21 05:38:07,overcast clouds
312,Sao Joao Da Barra,-21.6403,-41.0511,68.16,86,6,8.21,BR,2021-04-21 05:38:07,clear sky
313,Ca Mau,9.1769,105.15,91.29,51,98,8.66,VN,2021-04-21 05:38:08,overcast clouds
314,Yatou,37.15,122.3833,60.21,39,100,10.04,CN,2021-04-21 05:37:05,overcast clouds
315,Flinders,-34.5833,150.8552,66.99,42,0,10.36,AU,2021-04-21 05:38:09,clear sky
316,Barguzin,53.6167,109.6167,33.84,64,100,9.37,RU,2021-04-21 05:38:09,overcast clouds
317,Sept-Iles,50.2001,-66.3821,37.99,100,90,3.44,CA,2021-04-21 05:35:02,overcast clouds
318,Hamilton,39.1834,-84.5333,33.01,92,100,1.99,US,2021-04-21 05:33:50,snow
319,Batticaloa,7.7102,81.6924,85.73,65,100,5.75,LK,2021-04-21 05:38:11,overcast clouds
320,Henties Bay,-22.116,14.2845,74.03,53,12,2.51,NA,2021-04-21 05:38:11,few clouds
321,Turka,49.1541,23.0297,45.0,70,21,1.01,UA,2021-04-21 05:38:12,few clouds
322,Yerbogachen,61.2767,108.0108,25.57,76,100,7.27,RU,2021-04-21 05:38:13,light snow
323,Makakilo City,21.3469,-158.0858,78.8,69,1,3.44,US,2021-04-21 05:38:13,light rain
324,Aksu,41.1231,80.2644,71.19,22,96,2.19,CN,2021-04-21 05:38:14,overcast clouds
325,Fernandina Beach,30.6697,-81.4626,64.0,90,90,3.44,US,2021-04-21 05:38:14,overcast clouds
326,Catemaco,18.4167,-95.1167,69.26,93,69,2.1,MX,2021-04-21 05:38:15,broken clouds
327,Khor,47.8861,134.9464,63.14,18,0,9.84,RU,2021-04-21 05:38:15,clear sky
328,Muros,42.7762,-9.0603,48.0,96,99,4.03,ES,2021-04-21 05:38:16,overcast clouds
329,Tinqueux,49.25,3.9833,41.0,93,7,2.62,FR,2021-04-21 05:38:16,clear sky
330,Batsfjord,70.6345,29.7185,41.0,65,0,25.32,NO,2021-04-21 05:38:17,clear sky
331,Along,28.1667,94.7667,90.7,28,3,2.46,IN,2021-04-21 05:38:10,clear sky
332,Tilichiki,60.4667,166.1,30.69,89,60,3.36,RU,2021-04-21 05:38:17,broken clouds
333,Jumla,29.2747,82.1838,48.87,98,100,3.42,NP,2021-04-21 05:38:18,overcast clouds
334,Batagay,67.6333,134.6333,23.29,70,100,3.94,RU,2021-04-21 05:38:18,overcast clouds
335,Coihaique,-45.5752,-72.0662,45.59,91,100,1.05,CL,2021-04-21 05:38:19,light rain
336,Kibakwe,-6.7167,36.3667,69.28,80,100,2.1,TZ,2021-04-21 05:38:20,overcast clouds
337,Black River,18.0264,-77.8487,78.8,65,20,2.3,JM,2021-04-21 05:38:20,few clouds
338,Ayr,55.4627,-4.6339,42.8,81,40,6.91,GB,2021-04-21 05:38:20,scattered clouds
339,Konevo,62.1215,39.3192,41.45,56,85,9.57,RU,2021-04-21 05:38:21,overcast clouds
340,Nyurba,63.2842,118.3319,25.0,65,100,6.2,RU,2021-04-21 05:38:21,overcast clouds
341,Madang,-5.2246,145.7966,85.64,67,100,5.39,PG,2021-04-21 05:38:22,overcast clouds
342,Dzhebariki-Khaya,62.2167,135.8,27.91,69,100,4.38,RU,2021-04-21 05:38:22,overcast clouds
343,Ganzhou,28.8184,115.4327,79.18,69,78,4.83,CN,2021-04-21 05:38:23,broken clouds
344,Teyateyaneng,-29.1472,27.7489,55.04,58,22,4.14,LS,2021-04-21 05:38:23,few clouds
345,Coolum Beach,-26.5333,153.1,84.99,47,0,1.03,AU,2021-04-21 05:38:24,clear sky
346,Tuatapere,-46.1333,167.6833,48.0,95,100,8.99,NZ,2021-04-21 05:38:24,overcast clouds
347,Roald,62.5833,6.1333,39.2,87,75,14.97,NO,2021-04-21 05:38:25,broken clouds
348,Palu,-0.8917,119.8707,91.18,51,28,5.3,ID,2021-04-21 05:38:25,scattered clouds
349,Kutum,14.2,24.6667,81.9,9,20,11.03,SD,2021-04-21 05:38:26,few clouds
350,Hasaki,35.7333,140.8333,79.0,46,0,9.22,JP,2021-04-21 05:38:26,clear sky
351,Robstown,27.7903,-97.6689,68.0,83,1,6.91,US,2021-04-21 05:38:27,clear sky
352,Provideniya,64.3833,-173.3,32.0,59,0,6.71,RU,2021-04-21 05:38:27,clear sky
353,Zyryanka,65.75,150.85,36.79,83,48,28.72,RU,2021-04-21 05:38:28,scattered clouds
354,Baherden,38.4362,57.4316,76.64,30,99,16.33,TM,2021-04-21 05:38:28,overcast clouds
355,Angoram,-4.0625,144.0661,85.87,70,100,1.92,PG,2021-04-21 05:38:29,overcast clouds
356,Usinsk,65.9939,57.5281,37.31,99,90,8.86,RU,2021-04-21 05:38:29,overcast clouds
357,Hambantota,6.1241,81.1185,89.6,70,40,6.91,LK,2021-04-21 05:38:30,scattered clouds
358,Okhotsk,59.3833,143.3,31.89,98,100,9.8,RU,2021-04-21 05:38:31,light snow
359,Siilinjarvi,63.0833,27.6667,35.6,60,0,3.44,FI,2021-04-21 05:38:31,clear sky
360,Shimanovsk,52.0,127.7,69.33,21,3,13.78,RU,2021-04-21 05:38:32,clear sky
361,Monywa,22.1167,95.1333,101.34,12,0,2.15,MM,2021-04-21 05:38:32,clear sky
362,Richards Bay,-28.783,32.0377,68.05,79,8,5.82,ZA,2021-04-21 05:38:33,clear sky
363,Kostomuksha,64.571,30.5767,40.59,62,94,6.24,RU,2021-04-21 05:38:33,overcast clouds
364,Gat,31.61,34.7642,69.01,100,5,1.99,IL,2021-04-21 05:38:34,clear sky
365,Talcahuano,-36.7167,-73.1167,57.2,100,75,4.61,CL,2021-04-21 05:38:34,broken clouds
366,Omsukchan,62.5333,155.8,29.28,85,100,10.27,RU,2021-04-21 05:38:35,overcast clouds
367,Haflong,25.1833,93.0333,95.09,21,3,7.4,IN,2021-04-21 05:38:36,clear sky
368,Huilong,31.8111,121.655,73.99,64,66,8.01,CN,2021-04-21 05:38:36,broken clouds
369,Whitehorse,60.7161,-135.0538,41.0,81,75,4.61,CA,2021-04-21 05:38:36,snow
370,Presidente Medici,-11.1753,-61.9014,70.84,97,95,1.39,BR,2021-04-21 05:38:37,overcast clouds
371,Lavrentiya,65.5833,-171.0,25.59,72,66,6.11,RU,2021-04-21 05:38:38,broken clouds
372,Laguna,38.421,-121.4238,57.2,67,1,4.61,US,2021-04-21 05:38:38,clear sky
373,San Jose De Rio Tinto,14.9333,-85.7,78.8,78,40,2.28,HN,2021-04-21 05:38:39,scattered clouds
374,Kathu,7.9178,98.3332,87.8,74,40,9.22,TH,2021-04-21 05:38:40,scattered clouds
375,Mahebourg,-20.4081,57.7,82.4,78,75,11.5,MU,2021-04-21 05:38:40,light rain
376,Marsh Harbour,26.5412,-77.0636,77.4,82,98,13.76,BS,2021-04-21 05:38:41,overcast clouds
377,Olinda,-8.0089,-34.8553,75.2,88,40,2.3,BR,2021-04-21 05:38:41,scattered clouds
378,Taoudenni,22.6783,-3.9836,79.59,15,22,10.16,ML,2021-04-21 05:38:42,few clouds
379,Batagay-Alyta,67.8006,130.4114,19.29,59,90,2.59,RU,2021-04-21 05:38:42,overcast clouds
380,Basco,20.4487,121.9702,77.14,89,100,33.2,PH,2021-04-21 05:38:43,light rain
381,Bengkulu,-3.8004,102.2655,83.08,75,43,7.14,ID,2021-04-21 05:38:30,scattered clouds
382,Dunedin,-45.8742,170.5036,59.0,78,40,10.0,NZ,2021-04-21 05:38:44,scattered clouds
383,Novyy Buh,47.6931,32.5216,46.4,81,0,4.47,UA,2021-04-21 05:38:45,clear sky
384,Bella Union,-30.2752,-57.6007,63.73,64,0,13.73,UY,2021-04-21 05:38:46,clear sky
385,Nabire,-3.3667,135.4833,84.52,71,100,4.9,ID,2021-04-21 05:38:46,overcast clouds
386,Tessalit,20.1986,1.0114,75.33,9,52,5.93,ML,2021-04-21 05:38:47,broken clouds
387,Middle Island,40.8843,-72.9373,54.0,76,1,12.66,US,2021-04-21 05:38:47,clear sky
388,North Bend,43.4065,-124.2243,50.0,93,90,4.61,US,2021-04-21 05:38:48,overcast clouds
389,Masallatah,32.6167,14.0,59.52,46,47,21.0,LY,2021-04-21 05:38:48,scattered clouds
390,Ust-Tsilma,65.441,52.1498,47.14,53,49,6.26,RU,2021-04-21 05:38:49,scattered clouds
391,Moron,-34.6534,-58.6198,66.99,89,0,8.01,AR,2021-04-21 05:38:49,clear sky
392,Nesebar,42.7833,27.7333,53.01,87,6,4.61,BG,2021-04-21 05:38:50,clear sky
393,Yuli,9.6989,10.2744,83.7,58,95,6.51,NG,2021-04-21 05:38:51,overcast clouds
394,Najran,17.4924,44.1277,77.0,16,0,2.3,SA,2021-04-21 05:38:51,clear sky
395,Takoradi,4.8845,-1.7554,79.72,83,99,5.08,GH,2021-04-21 05:38:52,overcast clouds
396,Maceio,-9.6658,-35.7353,75.2,94,0,4.61,BR,2021-04-21 05:38:52,clear sky
397,Untsukul,42.7115,46.7866,67.28,52,100,3.09,RU,2021-04-21 05:38:53,overcast clouds
398,Toora-Khem,52.4675,96.11,32.65,39,21,2.77,RU,2021-04-21 05:38:54,few clouds
399,Bako,5.7833,36.5667,75.29,51,89,1.07,ET,2021-04-21 05:38:54,overcast clouds
400,Norfolk,42.1668,-71.2495,52.0,62,50,12.66,US,2021-04-21 05:38:55,scattered clouds
401,Bridlington,54.0831,-0.1919,45.0,82,99,7.0,GB,2021-04-21 05:38:55,overcast clouds
402,Rio Gallegos,-51.6226,-69.2181,44.6,76,0,14.97,AR,2021-04-21 05:38:56,clear sky
403,Broome,42.2506,-75.833,39.99,80,90,8.05,US,2021-04-21 05:38:56,overcast clouds
404,Wuhu,31.3366,118.3755,64.4,100,40,8.95,CN,2021-04-21 05:38:57,light rain
405,Portland,45.5234,-122.6762,62.6,48,20,5.75,US,2021-04-21 05:35:31,few clouds
406,Great Bend,38.3645,-98.7648,33.01,86,1,8.05,US,2021-04-21 05:38:58,clear sky
407,Goderich,43.7501,-81.7165,32.0,69,100,9.22,CA,2021-04-21 05:38:58,overcast clouds
408,Sattahip,12.6664,100.9007,91.4,62,20,9.22,TH,2021-04-21 05:34:16,few clouds
409,Bubaque,11.2833,-15.8333,77.5,67,19,10.92,GW,2021-04-21 05:38:59,few clouds
410,College,64.8569,-147.8028,41.0,30,20,5.75,US,2021-04-21 05:38:59,few clouds
411,Peniche,39.3558,-9.3811,57.0,88,100,3.0,PT,2021-04-21 05:39:00,light rain
412,Umm Lajj,25.0213,37.2685,83.08,55,71,4.41,SA,2021-04-21 05:39:00,broken clouds
413,Juneau,58.3019,-134.4197,46.4,71,75,5.75,US,2021-04-21 05:37:04,light rain
414,Maniwaki,46.3834,-75.966,26.6,68,98,8.05,CA,2021-04-21 05:39:01,overcast clouds
415,Dakar,14.6937,-17.4441,68.0,94,75,16.11,SN,2021-04-21 05:37:26,broken clouds
416,Baoning,25.3378,110.026,75.2,83,90,4.47,CN,2021-04-21 05:39:02,overcast clouds
417,Moose Factory,51.2585,-80.6094,15.8,73,90,9.22,CA,2021-04-21 05:39:03,light snow
418,Skibbereen,51.55,-9.2667,42.8,100,40,8.05,IE,2021-04-21 05:39:03,mist
419,Borborema,-21.6197,-49.0736,59.38,94,0,7.63,BR,2021-04-21 05:39:04,clear sky
420,Litovko,49.2361,135.1742,58.93,24,2,5.28,RU,2021-04-21 05:39:04,clear sky
421,Bowen,-20.0167,148.2333,80.6,69,85,10.36,AU,2021-04-21 05:39:05,overcast clouds
422,Rio Grande,-32.035,-52.0986,69.01,80,1,1.99,BR,2021-04-21 05:39:06,clear sky
423,Baker City,44.7749,-117.8344,42.01,60,1,6.91,US,2021-04-21 05:37:26,clear sky
424,Minsk Mazowiecki,52.1794,21.5725,50.0,86,93,5.41,PL,2021-04-21 05:39:07,light rain
425,Margate,51.3813,1.3862,44.01,92,86,1.99,GB,2021-04-21 05:39:08,overcast clouds
426,Camacha,33.0833,-16.3333,60.8,82,40,9.22,PT,2021-04-21 05:39:08,scattered clouds
427,Lodja,-3.4833,23.4333,69.53,98,100,2.57,CD,2021-04-21 05:39:09,light rain
428,Asau,46.4333,26.4,48.0,51,75,3.85,RO,2021-04-21 05:39:10,broken clouds
429,Tecpan,14.7623,-90.9947,69.01,83,0,11.5,GT,2021-04-21 05:39:10,clear sky
430,Gorom-Gorom,14.4439,-0.2361,83.71,7,56,4.72,BF,2021-04-21 05:39:11,broken clouds
431,Marrakesh,31.6315,-8.0083,55.4,76,0,3.44,MA,2021-04-21 05:39:12,clear sky
432,Nelson Bay,-32.7167,152.15,66.99,42,20,10.36,AU,2021-04-21 05:39:12,few clouds
433,Sao Gabriel Da Cachoeira,-0.1303,-67.0892,71.29,99,90,1.83,BR,2021-04-21 05:39:13,overcast clouds
434,Shingu,33.7333,135.9833,71.6,35,20,14.97,JP,2021-04-21 05:39:14,few clouds
435,Bosaso,11.2842,49.1816,84.2,74,0,6.91,SO,2021-04-21 05:39:14,clear sky
436,Humaita,-7.5061,-63.0208,72.14,98,82,1.54,BR,2021-04-21 05:39:14,moderate rain
437,Hovd,48.0056,91.6419,40.05,48,80,16.28,MN,2021-04-21 05:39:15,broken clouds
438,Great Yarmouth,52.6083,1.7305,44.6,100,75,9.22,GB,2021-04-21 05:37:44,mist
439,Saucillo,28.0167,-105.2833,67.51,18,34,10.6,MX,2021-04-21 05:39:16,scattered clouds
440,Kuryk,43.2,51.65,66.74,42,98,31.56,KZ,2021-04-21 05:39:16,overcast clouds
441,Ngunguru,-35.6167,174.5,66.0,81,8,8.01,NZ,2021-04-21 05:39:17,clear sky
442,Yeppoon,-23.1333,150.7333,80.6,54,90,9.22,AU,2021-04-21 05:39:17,overcast clouds
443,Siguiri,11.6667,-9.5,83.75,51,43,6.42,GN,2021-04-21 05:39:18,scattered clouds
444,Rocha,-34.4833,-54.3333,63.52,82,31,10.83,UY,2021-04-21 05:37:26,scattered clouds
445,Tabou,4.423,-7.3528,80.11,83,47,3.78,CI,2021-04-21 05:39:19,scattered clouds
446,Shaunavon,49.6501,-108.4181,28.4,54,29,2.3,CA,2021-04-21 05:39:19,scattered clouds
447,Chuy,-33.6971,-53.4616,67.15,72,34,13.44,UY,2021-04-21 05:39:20,scattered clouds
448,Kirovskiy,45.0917,133.5136,62.82,20,1,8.28,RU,2021-04-21 05:39:20,clear sky
449,Arcos,-20.2819,-45.5394,57.61,88,0,5.57,BR,2021-04-21 05:39:21,clear sky
450,Tutoia,-2.7619,-42.2744,75.25,87,100,2.39,BR,2021-04-21 05:39:21,overcast clouds
451,Saint-Donat-De-Montcalm,46.3187,-74.2219,33.8,80,86,2.3,CA,2021-04-21 05:39:22,overcast clouds
452,Dajabon,19.5488,-71.7083,73.99,81,19,3.0,DO,2021-04-21 05:36:20,few clouds
453,Grand Gaube,-20.0064,57.6608,81.0,79,100,8.01,MU,2021-04-21 05:39:23,overcast clouds
454,San Pedro,14.35,121.0167,91.99,62,75,17.27,PH,2021-04-21 05:39:23,broken clouds
455,Miracatu,-24.2814,-47.4597,65.12,99,86,1.9,BR,2021-04-21 05:39:24,overcast clouds
456,Arman,59.7,150.1667,34.7,91,100,10.51,RU,2021-04-21 05:39:25,light snow
457,Kilgore,32.3863,-94.8758,44.6,57,1,14.97,US,2021-04-21 05:39:25,clear sky
458,Cabedelo,-6.9811,-34.8339,75.2,100,75,5.46,BR,2021-04-21 05:39:26,broken clouds
459,Haines Junction,60.7522,-137.5108,41.0,65,75,12.66,CA,2021-04-21 05:39:27,light snow
460,Angoche,-16.2325,39.9086,75.65,82,60,8.19,MZ,2021-04-21 05:39:28,broken clouds
461,Wamba,8.9333,8.6,78.33,70,100,2.57,NG,2021-04-21 05:39:28,overcast clouds
462,Santa Maria Da Vitoria,-13.3947,-44.1886,68.94,94,75,1.3,BR,2021-04-21 05:39:29,broken clouds
463,Saurimo,-9.6608,20.3916,64.78,88,54,3.65,AO,2021-04-21 05:39:29,broken clouds
464,Monrovia,6.3005,-10.7969,77.0,94,40,7.47,LR,2021-04-21 05:39:30,light rain
465,Gravdal,68.1214,13.5031,35.6,80,75,29.93,NO,2021-04-21 05:39:31,broken clouds
466,Glarus,47.0406,9.068,39.99,24,10,5.91,CH,2021-04-21 05:39:31,clear sky
467,Sinnamary,5.3833,-52.95,76.5,86,100,7.18,GF,2021-04-21 05:39:32,overcast clouds
468,Deming,32.2687,-107.7586,57.2,23,1,10.36,US,2021-04-21 05:39:32,clear sky
469,Sola,-13.8833,167.55,82.67,76,28,12.77,VU,2021-04-21 05:39:33,scattered clouds
470,Xuanhua,40.6103,115.0447,66.76,29,100,19.39,CN,2021-04-21 05:39:34,overcast clouds
471,Anloga,5.7947,0.8973,82.4,83,40,6.91,GH,2021-04-21 05:39:34,scattered clouds
472,Banda Aceh,5.5577,95.3222,87.01,64,65,12.15,ID,2021-04-21 05:39:34,broken clouds
473,Teahupoo,-17.8333,-149.2667,78.8,78,75,8.05,PF,2021-04-21 05:39:35,broken clouds
474,Padang,-0.9492,100.3543,87.8,66,20,5.75,ID,2021-04-21 05:39:36,few clouds
475,Chum Phae,16.5443,102.0992,96.71,35,66,0.78,TH,2021-04-21 05:39:36,broken clouds
476,Am Timan,11.0297,20.2827,86.43,43,63,12.03,TD,2021-04-21 05:39:37,broken clouds
477,Ulaangom,49.9811,92.0667,28.6,86,100,5.03,MN,2021-04-21 05:39:38,light snow
478,Atar,20.5169,-13.0499,73.69,20,14,10.02,MR,2021-04-21 05:39:38,few clouds
479,Esperance,-33.8667,121.9,69.8,49,50,9.22,AU,2021-04-21 05:39:39,scattered clouds
480,Naron,43.5167,-8.1528,52.0,100,20,1.14,ES,2021-04-21 05:39:39,few clouds
481,Onda,39.9667,-0.25,55.0,96,100,1.48,ES,2021-04-21 05:39:40,overcast clouds
482,Nome,64.5011,-165.4064,35.6,69,1,3.44,US,2021-04-21 05:39:40,clear sky
483,Matara,5.9485,80.5353,86.25,64,98,10.29,LK,2021-04-21 05:39:41,overcast clouds
484,Oum Hadjer,13.2954,19.6966,86.81,7,12,9.6,TD,2021-04-21 05:39:41,few clouds
485,Sisimiut,66.9395,-53.6735,19.56,74,2,8.23,GL,2021-04-21 05:39:42,clear sky
486,Rodrigues Alves,-7.738,-72.6509,71.08,99,81,2.48,BR,2021-04-21 05:39:43,broken clouds
487,Sibolga,1.7427,98.7792,86.76,62,98,6.35,ID,2021-04-21 05:39:44,overcast clouds
488,Siparia,10.1333,-61.5,73.99,91,54,10.38,TT,2021-04-21 05:39:44,broken clouds
489,Babu,24.4167,111.5167,81.9,68,77,4.41,CN,2021-04-21 05:39:45,broken clouds
490,Paamiut,61.994,-49.6678,26.06,65,10,7.85,GL,2021-04-21 05:39:45,clear sky
491,Kavaratti,10.5669,72.642,84.18,71,95,8.01,IN,2021-04-21 05:39:46,overcast clouds
492,Banyo,6.75,11.8167,70.29,75,100,1.68,CM,2021-04-21 05:39:46,overcast clouds
493,Tocopilla,-22.092,-70.1979,65.05,79,50,6.42,CL,2021-04-21 05:39:47,scattered clouds
494,Acari,-15.4311,-74.6158,69.66,86,8,2.8,PE,2021-04-21 05:39:48,clear sky
495,Pokoynoye,44.8097,44.2517,55.58,69,100,13.31,RU,2021-04-21 05:39:48,overcast clouds
496,Tacuarembo,-31.7333,-55.9833,58.73,92,0,9.6,UY,2021-04-21 05:39:49,clear sky
497,Norrtalje,59.758,18.705,44.01,56,0,5.75,SE,2021-04-21 05:39:49,clear sky
498,Qianan,44.9932,124.0581,81.46,18,10,19.08,CN,2021-04-21 05:39:50,clear sky
499,Roebourne,-20.7833,117.1333,89.26,24,43,6.58,AU,2021-04-21 05:39:51,scattered clouds
500,Jutai,-5.1833,-68.9,70.3,99,97,0.81,BR,2021-04-21 05:39:51,overcast clouds
501,Revin,49.9404,4.635,46.4,76,75,2.3,FR,2021-04-21 05:39:52,mist
502,Morgan City,29.6994,-91.2068,62.6,88,1,4.61,US,2021-04-21 05:39:52,clear sky
503,Ous,60.9058,61.5186,50.7,46,5,2.64,RU,2021-04-21 05:39:53,clear sky
504,Impfondo,1.6381,18.0667,71.96,97,100,0.92,CG,2021-04-21 05:39:53,overcast clouds
505,Raudeberg,61.9875,5.1352,37.99,94,100,26.19,NO,2021-04-21 05:39:54,overcast clouds
506,Chumikan,54.7183,135.315,41.67,58,53,7.11,RU,2021-04-21 05:39:55,broken clouds
507,Saint-Augustin,51.226,-58.6502,36.03,80,100,4.41,CA,2021-04-21 05:39:55,overcast clouds
508,Piacabucu,-10.4056,-36.4344,75.96,91,81,8.57,BR,2021-04-21 05:39:56,broken clouds
509,Ulaanbaatar,47.9077,106.8832,69.8,11,0,6.71,MN,2021-04-21 05:39:56,clear sky
510,Chapais,49.7834,-74.8492,17.6,73,90,10.36,CA,2021-04-21 05:39:57,light snow
511,Sunyani,7.3399,-2.3268,71.56,97,100,3.62,GH,2021-04-21 05:39:57,overcast clouds
512,Beyneu,45.3167,55.2,57.7,27,69,25.93,KZ,2021-04-21 05:39:58,broken clouds
513,Shimoda,34.6667,138.95,69.8,52,20,5.75,JP,2021-04-21 05:39:59,few clouds
514,Nagato,34.3833,131.2,69.8,49,0,3.44,JP,2021-04-21 05:40:00,clear sky
515,Mayo,38.8876,-76.5119,60.01,82,1,9.22,US,2021-04-21 05:40:00,clear sky
516,Snezhnogorsk,69.1933,33.2531,44.6,36,0,8.95,RU,2021-04-21 05:40:01,clear sky
517,Noshiro,40.2039,140.0242,55.4,35,20,24.16,JP,2021-04-21 05:40:02,few clouds
518,Port Blair,11.6667,92.75,87.8,70,20,6.91,IN,2021-04-21 05:40:03,few clouds
519,Muroto,33.2833,134.15,69.8,64,20,5.75,JP,2021-04-21 05:40:04,few clouds
520,Evensk,61.95,159.2333,33.96,85,100,10.85,RU,2021-04-21 05:40:05,overcast clouds
521,Kentau,43.5206,68.5094,42.3,75,100,13.0,KZ,2021-04-21 05:40:05,overcast clouds
522,Honiara,-9.4333,159.95,83.35,81,62,2.62,SB,2021-04-21 05:40:06,broken clouds
523,Amudat,1.95,34.95,74.98,57,82,1.5,UG,2021-04-21 05:40:06,broken clouds
524,Kirakira,-10.4544,161.9205,83.19,80,62,6.76,SB,2021-04-21 05:40:07,broken clouds
525,Kerema,-7.9631,145.7785,80.96,78,100,7.11,PG,2021-04-21 05:40:08,overcast clouds
526,San Estanislao,10.3983,-75.1511,80.6,89,20,4.61,CO,2021-04-21 05:40:08,few clouds
527,Fez,34.0372,-4.9998,53.6,100,75,4.61,MA,2021-04-21 05:40:09,mist
528,Oga,46.4631,10.347,48.99,86,20,1.14,IT,2021-04-21 05:40:09,few clouds
529,Gladstone,-23.85,151.25,82.4,47,75,9.22,AU,2021-04-21 05:40:10,broken clouds
530,Mandera,3.9366,41.867,85.21,59,87,11.03,KE,2021-04-21 05:40:10,overcast clouds
531,Dhidhdhoo,6.8833,73.1,84.47,69,72,5.86,MV,2021-04-21 05:40:11,broken clouds
532,Guarapari,-20.6667,-40.4975,71.6,94,20,4.09,BR,2021-04-21 05:40:11,few clouds
533,Kaohsiung,22.6163,120.3133,86.0,54,40,12.66,TW,2021-04-21 05:40:12,scattered clouds
534,Sechura,-5.5569,-80.8222,70.41,76,76,13.24,PE,2021-04-21 05:40:13,broken clouds
535,Atambua,-9.1061,124.8925,79.99,68,77,3.31,ID,2021-04-21 05:40:13,broken clouds
536,Synya,65.3718,58.0387,44.1,74,29,6.24,RU,2021-04-21 05:40:14,scattered clouds
537,Oranjemund,-28.55,16.4333,61.47,87,44,4.9,NA,2021-04-21 05:40:14,scattered clouds
538,Aguas Vermelhas,-15.7472,-41.46,65.7,97,100,1.45,BR,2021-04-21 05:40:15,overcast clouds
539,Kropachevo,55.0112,57.9896,45.37,36,0,2.51,RU,2021-04-21 05:40:15,clear sky
540,Tukrah,32.5341,20.5791,59.59,61,13,6.89,LY,2021-04-21 05:40:16,few clouds
541,Somerset,40.5668,-74.5496,57.99,62,1,3.44,US,2021-04-21 05:40:17,clear sky
542,Waipawa,-41.4122,175.5153,60.8,82,90,14.97,NZ,2021-04-21 05:40:17,overcast clouds
543,Kompaniyivka,48.2511,32.208,49.42,67,23,8.28,UA,2021-04-21 05:40:18,few clouds
544,Morondava,-20.2833,44.2833,79.25,65,87,8.5,MG,2021-04-21 05:40:18,overcast clouds
545,Alblasserdam,51.8599,4.6632,46.99,79,100,1.99,NL,2021-04-21 05:40:19,overcast clouds
546,Tafresh,34.692,50.013,62.6,42,41,2.3,IR,2021-04-21 05:40:19,scattered clouds
547,Dibulla,11.2725,-73.3091,76.77,74,80,11.01,CO,2021-04-21 05:40:20,broken clouds
548,Alice Springs,-23.7,133.8833,80.6,13,0,9.22,AU,2021-04-21 05:35:35,clear sky
549,Nouakchott,18.0858,-15.9785,64.4,94,40,11.5,MR,2021-04-21 05:40:21,scattered clouds
550,Alexander City,32.944,-85.9539,52.0,87,1,4.88,US,2021-04-21 05:40:21,clear sky
551,Ratnagiri,16.9833,73.3,87.93,52,95,9.6,IN,2021-04-21 05:40:22,overcast clouds
552,San Antonio,29.4241,-98.4936,62.6,44,1,16.11,US,2021-04-21 05:39:43,clear sky
553,Goma,-1.6792,29.2228,64.4,77,75,6.91,CD,2021-04-21 05:40:23,broken clouds
554,Mazyr,52.0495,29.2456,41.09,82,67,5.59,BY,2021-04-21 05:40:23,broken clouds
555,Manica,49.0,-1.1667,44.6,100,90,5.75,FR,2021-04-21 05:40:24,fog
556,Erdenet,49.0333,104.0833,47.12,38,73,13.18,MN,2021-04-21 05:40:24,broken clouds
557,Iskateley,67.6803,53.1512,36.16,89,22,9.22,RU,2021-04-21 05:40:25,few clouds
558,Taltal,-25.4,-70.4833,62.06,77,29,4.47,CL,2021-04-21 05:40:25,scattered clouds
559,Kommunisticheskiy,61.6789,64.4819,45.1,64,52,2.8,RU,2021-04-21 05:40:26,broken clouds
560,Iquique,-20.2208,-70.1431,66.2,63,0,8.05,CL,2021-04-21 05:36:00,clear sky
561,Otradnoye,59.7775,30.8181,42.01,65,0,2.24,RU,2021-04-21 05:40:27,clear sky
562,Mabaruma,8.2,-59.7833,70.74,95,29,1.95,GY,2021-04-21 05:40:27,scattered clouds
563,Ossora,59.2353,163.0719,33.03,95,99,7.14,RU,2021-04-21 05:40:28,overcast clouds
564,Mitu,1.1983,-70.1733,71.08,98,97,2.71,CO,2021-04-21 05:40:28,overcast clouds
565,Mehran,33.1222,46.1646,75.2,29,0,4.61,IR,2021-04-21 05:40:29,clear sky
566,Oxelosund,58.6706,17.1015,42.8,52,0,3.44,SE,2021-04-21 05:40:29,clear sky
567,Ingham,42.6,-84.3833,33.01,64,90,3.44,US,2021-04-21 05:40:30,overcast clouds
568,Calama,-22.4667,-68.9333,42.8,61,0,16.11,CL,2021-04-21 05:40:30,clear sky
569,San Quintin,30.4833,-115.95,56.59,84,87,8.68,MX,2021-04-21 05:40:31,overcast clouds
570,Floro,61.5996,5.0328,37.4,87,75,31.07,NO,2021-04-21 05:40:31,broken clouds
571,Zemaiciu Naumiestis,55.3592,21.7022,47.79,64,49,8.08,LT,2021-04-21 05:40:32,scattered clouds
572,Shubarkuduk,49.1447,56.4872,45.27,26,48,19.95,KZ,2021-04-21 05:40:32,scattered clouds
573,Viedma,-40.8135,-62.9967,64.53,78,84,18.12,AR,2021-04-21 05:40:33,broken clouds
574,Sawakin,19.1059,37.3321,84.56,59,0,6.22,SD,2021-04-21 05:40:33,clear sky
575,Soeng Sang,14.4264,102.4606,93.2,70,20,8.05,TH,2021-04-21 05:40:34,few clouds
576,Vostok,46.4856,135.8833,55.27,21,0,13.29,RU,2021-04-21 05:40:34,clear sky
577,Bud,39.447,-86.1758,30.0,97,94,6.49,US,2021-04-21 05:40:35,overcast clouds
578,Chernenko,44.365,39.3103,53.13,74,95,3.83,RU,2021-04-21 05:40:35,overcast clouds
579,Sakakah,29.9697,40.2064,82.4,13,0,14.97,SA,2021-04-21 05:40:36,clear sky
580,Gorontalo,0.5412,123.0595,88.79,57,65,4.52,ID,2021-04-21 05:40:36,broken clouds
581,Zmeinogorsk,51.1567,82.195,33.76,28,23,9.35,RU,2021-04-21 05:40:37,few clouds
582,Teguldet,57.3064,88.1667,29.46,73,100,4.79,RU,2021-04-21 05:40:38,light snow
583,Roma,43.2128,-75.4557,36.0,75,90,3.44,US,2021-04-21 05:40:39,heavy snow
584,Fairview,40.8126,-73.999,60.8,44,1,9.44,US,2021-04-21 05:40:39,clear sky
585,Asfi,32.2994,-9.2372,58.24,88,56,11.86,MA,2021-04-21 05:40:40,broken clouds
586,Coracora,-15.0333,-73.7833,48.2,77,4,2.95,PE,2021-04-21 05:40:40,clear sky
587,Seoul,37.5683,126.9778,82.4,24,85,4.61,KR,2021-04-21 05:38:40,overcast clouds
588,Sora,41.7157,13.6141,46.0,93,40,2.3,IT,2021-04-21 05:40:41,mist
589,Khandyga,62.6667,135.6,27.45,70,100,4.07,RU,2021-04-21 05:40:42,overcast clouds
590,Kitui,-1.367,38.0106,67.8,83,100,3.13,KE,2021-04-21 05:40:43,overcast clouds
591,Dali,25.7,100.1833,78.19,23,2,5.93,CN,2021-04-21 05:40:43,clear sky
592,Carlos Antonio Lopez,-26.4,-54.7667,58.78,72,0,2.26,PY,2021-04-21 05:40:44,clear sky
593,Bilibino,68.0546,166.4372,31.14,84,2,2.98,RU,2021-04-21 05:40:44,clear sky
594,Bonito,-21.1211,-56.4819,65.66,59,0,1.12,BR,2021-04-21 05:40:45,clear sky
595,Tongchuan,35.0806,109.0897,58.44,78,100,5.82,CN,2021-04-21 05:40:45,overcast clouds
596,Cayenne,4.9333,-52.3333,77.0,100,0,2.3,GF,2021-04-21 05:40:46,clear sky
597,Sorsk,54.0033,90.2467,26.19,36,100,7.45,RU,2021-04-21 05:40:46,overcast clouds
598,Vikulovo,56.8167,70.6107,40.23,48,19,13.35,RU,2021-04-21 05:40:47,few clouds
599,Pacific Grove,36.6177,-121.9166,51.8,87,90,6.91,US,2021-04-21 05:40:47,mist
600,La Asuncion,11.0333,-63.8628,76.05,82,38,13.67,VE,2021-04-21 05:40:48,scattered clouds
601,Mount Isa,-20.7333,139.5,91.4,25,40,3.44,AU,2021-04-21 05:40:48,scattered clouds
602,San Vicente,-26.6167,-54.1333,56.52,72,0,3.18,AR,2021-04-21 05:40:49,clear sky
603,Krasnyy Yar,46.5331,48.3456,57.2,62,75,15.66,RU,2021-04-21 05:40:50,smoke
604,Moroni,-11.7022,43.2551,81.3,80,39,13.71,KM,2021-04-21 05:40:50,light rain
605,Peski,55.2163,38.7626,37.0,100,90,6.71,RU,2021-04-21 05:40:51,light rain and snow
606,Terra Santa,-2.1042,-56.4869,72.37,94,92,2.19,BR,2021-04-21 05:40:51,overcast clouds
607,Rosario Do Sul,-30.2583,-54.9142,60.4,87,0,12.44,BR,2021-04-21 05:40:52,clear sky
608,Sfantu Gheorghe,45.8667,25.7833,45.0,93,99,1.01,RO,2021-04-21 05:40:53,overcast clouds
609,Kahului,20.8947,-156.47,77.0,78,20,3.44,US,2021-04-21 05:40:53,light rain
610,Dubai,25.2582,55.3047,84.2,42,0,4.61,AE,2021-04-21 05:39:33,clear sky
611,Mangrol,21.1167,70.1167,86.22,55,100,11.83,IN,2021-04-21 05:40:54,overcast clouds
612,Waren,53.5167,12.6833,44.01,84,4,3.0,DE,2021-04-21 05:40:55,clear sky
613,Manokwari,-0.8667,134.0833,82.94,71,83,5.46,ID,2021-04-21 05:40:55,broken clouds
614,Jacareacanga,-6.2222,-57.7528,71.29,99,100,1.05,BR,2021-04-21 05:40:56,overcast clouds
615,Verkhnetulomskiy,68.6073,31.7962,44.6,36,0,8.95,RU,2021-04-21 05:40:56,clear sky
616,Arraias,-12.9288,-46.9437,64.74,98,29,1.34,BR,2021-04-21 05:40:57,scattered clouds
617,Aloleng,16.1307,119.7824,84.11,70,100,21.9,PH,2021-04-21 05:40:57,overcast clouds
618,Tahe,52.3333,124.7333,69.33,27,17,9.6,CN,2021-04-21 05:40:58,few clouds
619,Komsomolskiy,40.4272,71.7189,57.2,77,40,6.91,UZ,2021-04-21 05:40:59,scattered clouds
620,Kiama,-34.6833,150.8667,66.2,42,0,10.36,AU,2021-04-21 05:40:59,clear sky
621,Nedjo,9.5046,35.5019,75.36,30,86,4.92,ET,2021-04-21 05:41:00,overcast clouds
622,Bereda,43.2686,-7.5406,46.99,100,84,1.99,ES,2021-04-21 05:41:00,broken clouds
623,Machali,-34.1833,-70.6667,55.98,80,78,3.33,CL,2021-04-21 05:41:01,broken clouds
624,Acapulco,16.8634,-99.8901,76.59,60,61,3.71,MX,2021-04-21 05:41:02,broken clouds
625,Mount Barker,-35.0667,138.8667,61.0,60,44,10.2,AU,2021-04-21 05:41:02,scattered clouds
626,Edendale,-29.6528,30.3147,59.0,96,23,3.69,ZA,2021-04-21 05:41:03,few clouds
627,Nouadhibou,20.931,-17.0347,64.4,77,0,19.57,MR,2021-04-21 05:41:03,clear sky
628,Wooster,40.8051,-81.9351,34.0,86,90,10.36,US,2021-04-21 05:41:04,snow
629,Surazh,53.0175,32.3918,40.59,79,100,5.93,RU,2021-04-21 05:41:05,light rain
630,Murdochville,48.9583,-65.5006,41.0,81,99,2.3,CA,2021-04-21 05:41:05,overcast clouds
631,Noumea,-22.2763,166.4572,77.0,69,90,8.05,NC,2021-04-21 05:41:05,overcast clouds
632,Mendrisio,45.8674,8.9821,48.0,93,75,2.3,CH,2021-04-21 05:41:06,broken clouds
633,Imeni Babushkina,59.7573,43.1285,41.59,49,100,14.61,RU,2021-04-21 05:41:06,overcast clouds
634,Muisne,0.6,-80.0333,75.74,88,99,3.27,EC,2021-04-21 05:41:07,light rain
635,Aranos,-24.1333,19.1167,61.45,36,15,12.55,NA,2021-04-21 05:41:07,few clouds
636,Araouane,18.9048,-3.5265,77.14,8,3,8.63,ML,2021-04-21 05:41:08,clear sky
637,Slave Lake,55.2834,-114.769,44.6,42,1,4.61,CA,2021-04-21 05:41:08,clear sky
638,Lewistown,40.5992,-77.5714,53.01,81,87,3.0,US,2021-04-21 05:41:09,overcast clouds
639,Fort Nelson,58.8053,-122.7002,44.6,42,20,3.44,CA,2021-04-21 05:41:09,few clouds
640,Bonga,7.2833,36.2333,71.29,59,95,1.5,ET,2021-04-21 05:41:10,overcast clouds
641,Kyakhta,50.3508,106.4494,40.33,36,95,24.0,RU,2021-04-21 05:41:10,light rain
642,Labuhan,-6.8844,112.2051,86.63,55,37,2.42,ID,2021-04-21 05:41:11,scattered clouds
643,Burgeo,47.6167,-57.6152,38.52,84,72,4.97,CA,2021-04-21 05:41:12,broken clouds
644,Ozinki,51.1786,49.6769,38.55,64,100,23.89,RU,2021-04-21 05:41:12,light rain
645,Shelburne,44.0787,-80.2041,32.0,80,100,7.25,CA,2021-04-21 05:41:13,overcast clouds
646,Mozarlandia,-14.7447,-50.5706,69.37,81,19,2.82,BR,2021-04-21 05:41:14,few clouds
647,Vestmannaeyjar,63.4427,-20.2734,42.21,71,100,6.33,IS,2021-04-21 05:41:14,overcast clouds
648,Sapouy,11.5544,-1.7736,81.59,56,100,9.31,BF,2021-04-21 05:41:15,overcast clouds
649,Ouesso,1.6136,16.0517,69.78,96,99,2.04,CG,2021-04-21 05:41:15,light rain
650,Bima,-8.4667,118.7167,85.28,58,68,6.33,ID,2021-04-21 05:41:16,broken clouds
651,Rovaniemi,66.5,25.7167,37.4,48,0,9.22,FI,2021-04-21 05:41:16,clear sky
652,Domingos Martins,-20.3633,-40.6592,71.6,94,20,3.71,BR,2021-04-21 05:41:17,few clouds
653,Inongo,-1.95,18.2667,73.11,93,100,3.49,CD,2021-04-21 05:41:17,overcast clouds
654,Timbiqui,2.7717,-77.6654,74.19,93,100,2.37,CO,2021-04-21 05:41:18,moderate rain
655,Champerico,14.3,-91.9167,70.0,95,83,3.94,GT,2021-04-21 05:41:18,broken clouds
656,Ulladulla,-35.35,150.4667,66.2,42,0,10.36,AU,2021-04-21 05:41:19,clear sky
657,Husavik,66.0449,-17.3389,39.2,60,90,13.8,IS,2021-04-21 05:41:20,overcast clouds
658,Bayan,46.0833,127.4,75.67,20,5,12.12,CN,2021-04-21 05:41:20,clear sky
659,Notodden,59.5594,9.2585,41.0,56,0,6.91,NO,2021-04-21 05:41:21,clear sky
660,Port Shepstone,-30.7414,30.455,67.03,75,31,3.83,ZA,2021-04-21 05:41:21,scattered clouds
661,Tucupita,9.0622,-62.051,70.05,97,45,3.27,VE,2021-04-21 05:41:22,scattered clouds
662,Haradok,55.4624,29.9816,41.0,87,75,6.71,BY,2021-04-21 05:41:22,broken clouds
663,Pangoa,-12.1167,-73.0,68.88,98,100,1.5,PE,2021-04-21 05:41:23,overcast clouds
664,Matamoros,25.5333,-103.25,70.0,26,23,14.23,MX,2021-04-21 05:41:24,few clouds
665,Awjilah,29.1081,21.2869,63.23,40,58,12.03,LY,2021-04-21 05:41:24,broken clouds
666,Tabuk,17.4189,121.4443,85.28,60,100,17.65,PH,2021-04-21 05:41:25,light rain
667,Nanakuli,21.3906,-158.1547,77.0,69,1,3.44,US,2021-04-21 05:41:25,light rain
668,Bria,6.5423,21.9863,72.63,87,100,6.4,CF,2021-04-21 05:41:26,overcast clouds
669,Yarada,17.65,83.2667,91.4,62,75,11.5,IN,2021-04-21 05:41:26,haze
670,Prince Rupert,54.3161,-130.3201,44.6,87,90,3.44,CA,2021-04-21 05:41:27,overcast clouds
671,Mae Hong Son,19.3003,97.9685,98.6,39,20,3.44,TH,2021-04-21 05:41:27,few clouds
672,Syracuse,37.0881,15.2792,55.0,93,20,5.75,IT,2021-04-21 05:41:28,few clouds
673,Bandarbeyla,9.4942,50.8122,84.97,68,95,8.5,SO,2021-04-21 05:41:28,overcast clouds
674,Xinqing,48.2333,129.5,70.2,15,98,8.03,CN,2021-04-21 05:41:09,overcast clouds
675,Beloha,-25.1667,45.05,75.7,63,37,14.74,MG,2021-04-21 05:41:29,scattered clouds
676,Malesici,44.7381,18.2739,46.99,100,40,1.14,BA,2021-04-21 05:41:30,scattered clouds
677,Luderitz,-26.6481,15.1594,69.08,60,71,9.66,NA,2021-04-21 05:41:31,broken clouds
678,Araceli,10.5529,119.9913,85.62,69,100,10.69,PH,2021-04-21 05:41:31,overcast clouds
679,Sorland,67.667,12.6934,37.4,70,75,28.77,NO,2021-04-21 05:41:32,broken clouds
680,Arlit,18.7369,7.3853,83.12,7,59,7.72,NE,2021-04-21 05:41:32,broken clouds
681,Mecca,21.4267,39.8261,94.84,18,3,3.36,SA,2021-04-21 05:41:33,clear sky
682,Bikaner,28.0167,73.3,81.54,36,11,9.86,IN,2021-04-21 05:41:33,few clouds
683,Caxito,-8.5785,13.6643,75.2,94,40,3.44,AO,2021-04-21 05:41:34,scattered clouds
684,Lac Du Bonnet,50.2536,-96.0612,23.0,99,35,3.29,CA,2021-04-21 05:41:34,scattered clouds
685,Northam,51.0333,-4.2167,48.0,89,99,1.01,GB,2021-04-21 05:41:35,overcast clouds
